[{
    "address": "15 Rue de Sévigné",
    "category": "2",
    "city": "Paris",
    "id": 2,
    "lat": 48.8565815,
    "lng": 2.3602533,
    "phone": "(+33) 01 42 74 33 75",
    "picture": "../assets/store-piment-cafe.jpg",
    "title": "Le Piment Café",
    "zipcode": "75004"
}, {
    "address": "28 Rue de l'Exposition",
    "category": "1",
    "city": "Paris",
    "id": 3,
    "lat": 48.8573705,
    "link": "http://www.leptittroquet.fr",
    "lng": 2.3010083,
    "phone": "(+33) 01 47 05 80 39",
    "picture": "../assets/store-petit-troquet.jpg",
    "title": "Le Petit Troquet",
    "zipcode": "75007"
}, {
    "address": "34 Avenue de la Perrière",
    "category": "1",
    "city": "Lorient",
    "id": 1,
    "lat": 48.8764076,
    "link": "http://www.crabemarteau.fr",
    "lng": 2.2884175,
    "phone": "(+33) 02 97 59 40 71",
    "picture": "../assets/store-crabe-marteau.jpg",
    "title": "Le crabe Marteau",
    "zipcode": "56100"
}, {
    "address": "35 Boulevard Saint-Germain",
    "category": "2",
    "city": "Paris",
    "id": 5,
    "lat": 48.8493894,
    "link": "http://www.cafe-elsur.com",
    "lng": 2.3492624,
    "phone": "(+33) 01 43 25 58 28",
    "picture": "../assets/store-cafe-elsur.jpg",
    "title": "Café El Sur",
    "zipcode": "75004"
}, {
    "address": "82 Avenue Denfert-Rochereau",
    "category": "3",
    "city": "Paris",
    "id": 4,
    "lat": 48.8367948,
    "link": "http://www.mamapetula.com",
    "lng": 2.3323415,
    "phone": "(+33) 01 47 05 80 39",
    "picture": "../assets/store-mama-petula.jpg",
    "title": "Mama Petula - concept store végétal",
    "zipcode": "75014"
}]