[{
    "category": "2",
    "id": 14608,
    "title": "PHARMACIE MAIRIE DE PARIS",
    "address": "9 RUE DES ARCHIVES",
    "city": "PARIS",
    "zipcode": "75004",
    "phone": "01 42 78 53 58",
    "lat": 48.8577404,
    "lng": 2.3543004
}, {
    "category": "1",
    "id": 14741,
    "title": "PHARMACIE DES HALLES",
    "address": "10 BOULEVARD DE SEBASTOPOL",
    "city": "PARIS",
    "zipcode": "75004",
    "phone": "01 42 72 03 23",
    "lat": 48.8591498,
    "lng": 2.3489124
}, {
    "category": "2",
    "id": 14652,
    "title": "PHARMACIE PREMIERE SELAS",
    "address": "24 BLD SEBASTOPOL",
    "city": "PARIS",
    "zipcode": "75004",
    "phone": "01 48 87 62 30",
    "lat": 48.8606377,
    "lng": 2.3497636
}, {
    "category": "3",
    "id": 14722,
    "title": "PHARMACIE BEAUBOURG",
    "address": "54 RUE RAMBUTEAU",
    "city": "PARIS",
    "zipcode": "75003",
    "phone": "01 48 87 78 19",
    "lat": 48.8616523,
    "lng": 2.3521011
}, {
    "category": "2",
    "id": 14746,
    "title": "PHARMACIE DU MARAIS",
    "address": "119 RUE SAINT ANTOINE",
    "city": "PARIS",
    "zipcode": "75004",
    "phone": "01 42 72 20 44",
    "lat": 48.8549981,
    "lng": 2.3603289
}, {
    "category": "1",
    "id": 14395,
    "title": "PHARMACIE BADER",
    "address": "12 BOULEVARD ST MICHEL",
    "city": "PARIS",
    "zipcode": "75006",
    "phone": "01 43 26 92 66",
    "lat": 48.8524483,
    "lng": 2.3433425
}, {
    "category": "2",
    "id": 14618,
    "title": "PHARMACIE MEYER POINSOT",
    "address": "37 RUE DE TURENNE",
    "city": "PARIS",
    "zipcode": "75003",
    "phone": "01 48 87 97 60",
    "lat": 48.856946,
    "lng": 2.3643206
}, {
    "category": "1",
    "id": 14805,
    "title": "PHARMACIE SAINT EUSTACHE",
    "address": "23 RUE MONTORGUEIL",
    "city": "PARIS",
    "zipcode": "75001",
    "phone": "01 42 36 24 26",
    "lat": 48.8639604,
    "lng": 2.346212
}, {
    "category": "2",
    "id": 14787,
    "title": "PHARMACIE CANONNE REAUMUR",
    "address": "88 BOULEVARD DE SEBASTOPOL",
    "city": "PARIS",
    "zipcode": "75003",
    "phone": "01 42 77 57 57",
    "lat": 48.8659166,
    "lng": 2.3527444
}, {
    "category": "3",
    "id": 14401,
    "title": "PHARMACIE BATTINO BORGEL",
    "address": "21 RUE SAINT ANTOINE",
    "city": "PARIS",
    "zipcode": "75004",
    "phone": "01 42 72 04 75",
    "lat": 48.8535216,
    "lng": 2.3657377
}, {
    "category": "2",
    "id": 14459,
    "title": "PHARMACiE DE BRETAGNE",
    "address": "10 RUE DE BRETAGNE",
    "city": "PARIS",
    "zipcode": "75003",
    "phone": "01 42 78 43 31",
    "lat": 48.8624931,
    "lng": 2.3636125
}, {
    "category": "1",
    "id": 14748,
    "title": "PHARMACIE DU PALAIS ROYAL",
    "address": "164 RUE SAINT HONORE",
    "city": "PARIS",
    "zipcode": "75001",
    "phone": "01 42 60 34 36",
    "lat": 48.86225,
    "lng": 2.3396696
}, {
    "category": "2",
    "id": 14403,
    "title": "PHARMACIE BEAUMARCHAIS",
    "address": "91 BOULEVARD BEAUMARCHAIS",
    "city": "PARIS",
    "zipcode": "75003",
    "phone": "01 42 78 62 99",
    "lat": 48.8593718,
    "lng": 2.3672784
}, {
    "category": "1",
    "id": 14800,
    "title": "PHARMACIE MODERNE DU SENTIER",
    "address": "7 RUE DES PETITS CARREAUX",
    "city": "PARIS",
    "zipcode": "75002",
    "phone": "09 60 09 89 14",
    "lat": 48.8667121,
    "lng": 2.3470235
}, {
    "category": "2",
    "id": 14473,
    "title": "PHARMACIE DE LA BANQUE",
    "address": "26 RUE CROIX DES PETITS CHAMPS",
    "city": "PARIS",
    "zipcode": "75001",
    "phone": "01 58 62 47 88",
    "lat": 48.8639062,
    "lng": 2.3401719
}, {
    "category": "3",
    "id": 14370,
    "title": "PARA BEAUTY SENTIER",
    "address": "91 RUE REAUMUR",
    "city": "PARIS",
    "zipcode": "75002",
    "phone": "01 42 36 73 11",
    "lat": 48.8673113,
    "lng": 2.3467045
}, {
    "category": "2",
    "id": 14678,
    "title": "PHARMACIE SOUFFLOT",
    "address": "17 RUE SOUFFLOT",
    "city": "PARIS",
    "zipcode": "75005",
    "phone": "01 43 54 56 67",
    "lat": 48.846937,
    "lng": 2.3415888
}, {
    "category": "1",
    "id": 14416,
    "title": "PHARMACIE BOUBERT FLORENCE",
    "address": "48 RUE JACOB",
    "city": "PARIS",
    "zipcode": "75006",
    "phone": "01 42 60 27 37",
    "lat": 48.8561651,
    "lng": 2.3328851
}, {
    "category": "2",
    "id": 14803,
    "title": "PHARMACIE PLACE REPUBLIQUE",
    "address": "5 PLACE DE LA REPUBLIQUE",
    "city": "PARIS",
    "zipcode": "75003",
    "phone": "01 47 00 18 08",
    "lat": 48.8668649,
    "lng": 2.3639738
}, {
    "category": "1",
    "id": 14565,
    "title": "PHARMACIE DU THEATRE FRANCAIS",
    "address": "2 PLACE ANDRE MALRAUX",
    "city": "PARIS",
    "zipcode": "75001",
    "phone": "01 42 96 29 33",
    "lat": 48.8640368,
    "lng": 2.3357595
}, {
    "category": "2",
    "id": 14707,
    "title": "PHARMACIE MONGE",
    "address": "74 RUE MONGE",
    "city": "PARIS",
    "zipcode": "75005",
    "phone": "01 43 31 39 44",
    "lat": 48.842575,
    "lng": 2.3518511
}, {
    "category": "3",
    "id": 14791,
    "title": "PHARMACIE DE L'EPOQUE",
    "address": "49 RUE DU FOUR",
    "city": "PARIS",
    "zipcode": "75006",
    "phone": "01 45 48 53 58",
    "lat": 48.8521035,
    "lng": 2.3308388
}, {
    "category": "2",
    "id": 14521,
    "title": "PHARMACIE DES GRANDS BOULEVARDS",
    "address": "178 RUE MONTMARTRE",
    "city": "PARIS",
    "zipcode": "75002",
    "phone": "01 42 33 23 96",
    "lat": 48.8710747,
    "lng": 2.3435333
}, {
    "category": "1",
    "id": 14699,
    "title": "PHARMACIE LAXAN GUENON DES MESNARDS",
    "address": "96 RUE MONGE",
    "city": "PARIS",
    "zipcode": "75005",
    "phone": "01 43 31 72 90",
    "lat": 48.8407602,
    "lng": 2.3514731
}, {
    "category": "2",
    "id": 14591,
    "title": "PHARMACIE HOMEOPATHIQUE LAHYAN",
    "address": "83 AVENUE LEDRU ROLLIN",
    "city": "PARIS",
    "zipcode": "75012",
    "phone": "01 43 47 31 30",
    "lat": 48.8508528,
    "lng": 2.3748777
}, {
    "category": "1",
    "id": 14368,
    "title": "MA PHARMACIE REPUBLIQUE",
    "address": "44 RUE FAUBOURG DU TEMPLE",
    "city": "PARIS",
    "zipcode": "75011",
    "phone": "01 43 57 55 79",
    "lat": 48.8691351,
    "lng": 2.3692937
}, {
    "category": "2",
    "id": 17963,
    "title": "PHARMACIE DU LUTETIA",
    "address": "19 RUE DE SEVRES",
    "city": "PARIS",
    "zipcode": "75006",
    "phone": "01 45 48 32 55",
    "lat": 48.8513699,
    "lng": 2.3276466
}, {
    "category": "3",
    "id": 14377,
    "title": "PARASIA",
    "address": "107 AVENUE PARMENTIER",
    "city": "PARIS",
    "zipcode": "75011",
    "phone": "09 54 95 53 15",
    "lat": 48.8674309,
    "lng": 2.3726925
}, {
    "category": "2",
    "id": 14451,
    "title": "PHARMACIE D ASSAS",
    "address": "46 RUE D ASSAS",
    "city": "PARIS",
    "zipcode": "75006",
    "phone": "01 45 48 19 51",
    "lat": 48.8469569,
    "lng": 2.3301569
}, {
    "category": "1",
    "id": 14492,
    "title": "PHARMACIE DE LA SEMEUSE",
    "address": "137 RUE DU FAUBOURG ST ANTOINE",
    "city": "PARIS",
    "zipcode": "75011",
    "phone": "01 44 68 21 39",
    "lat": 48.8510615,
    "lng": 2.3780473
}, {
    "category": "2",
    "id": 14542,
    "title": "PHARMACIE DU CONSERVATOIRE",
    "address": "8 RUE RICHER",
    "city": "PARIS",
    "zipcode": "75009",
    "phone": "01 47 70 58 43",
    "lat": 48.8741953,
    "lng": 2.3471236
}, {
    "category": "1",
    "id": 14341,
    "title": "PHARMACIE BAC SAINT GERMAIN",
    "address": "70 RUE DU BAC",
    "city": "PARIS",
    "zipcode": "75007",
    "phone": "01 45 48 99 74",
    "lat": 48.8556089,
    "lng": 2.3248963
}, {
    "category": "2",
    "id": 14798,
    "title": "PHARMACIE DU SOLEIL",
    "address": "75 BOULEVARD DE STRASBOURG",
    "city": "PARIS",
    "zipcode": "75010",
    "phone": "01 47 70 31 56",
    "lat": 48.8745028,
    "lng": 2.356823
}, {
    "category": "3",
    "id": 14365,
    "title": "PHARMACIE GONCOURT",
    "address": "146 AVENUE PARMENTIER",
    "city": "PARIS",
    "zipcode": "75011",
    "phone": "01 43 57 55 55",
    "lat": 48.8696974,
    "lng": 2.3715195
}, {
    "category": "2",
    "id": 14393,
    "title": "PHARMACIE BAC GRENELLE",
    "address": "67 RUE DE GRENELLE",
    "city": "PARIS",
    "zipcode": "75007",
    "phone": "01 45 48 72 70",
    "lat": 48.8549996,
    "lng": 2.324362
}, {
    "category": "1",
    "id": 14590,
    "title": "PHARMACIE HAUTEVILLE",
    "address": "66 RUE D HAUTEVILLE",
    "city": "PARIS",
    "zipcode": "75010",
    "phone": "01 45 23 37 41",
    "lat": 48.8750938,
    "lng": 2.3509834
}, {
    "category": "2",
    "id": 14743,
    "title": "PHARMACIE DROUOT",
    "address": "19 RUE DROUOT",
    "city": "PARIS",
    "zipcode": "75009",
    "phone": "01 47 70 04 00",
    "lat": 48.8739241,
    "lng": 2.3405646
}, {
    "category": "1",
    "id": 14680,
    "title": "PHARMACIE STANISLAS",
    "address": "7 RUE NOTRE DAME DES CHAMPS",
    "city": "PARIS",
    "zipcode": "75006",
    "phone": "01 45 48 86 41",
    "lat": 48.8465982,
    "lng": 2.327535
}, {
    "category": "2",
    "id": 14714,
    "title": "GRANDE PHARMACIE",
    "address": "113 BOULEVARD VOLTAIRE",
    "city": "PARIS",
    "zipcode": "75011",
    "phone": "01 43 79 18 65",
    "lat": 48.8575374,
    "lng": 2.3813125
}, {
    "category": "3",
    "id": 14392,
    "title": "PHARMACIE AUTISSIER",
    "address": "56 RUE DU CHERCHE MIDI",
    "city": "PARIS",
    "zipcode": "75006",
    "phone": "01 42 22 26 39",
    "lat": 48.8490281,
    "lng": 2.3251631
}, {
    "category": "2",
    "id": 14781,
    "title": "PHARMACIE DE LA GARE DE LYON",
    "address": "GARE DE PARIS LYON C38 4 PLACE LOUIS ARMAND",
    "city": "PARIS",
    "zipcode": "75012",
    "phone": "01 43 43 32 15",
    "lat": 48.8443704,
    "lng": 2.375401
}, {
    "category": "1",
    "id": 14622,
    "title": "PHARMACIE MONTEUX",
    "address": "40 RUE DE BELLECHASSE",
    "city": "PARIS",
    "zipcode": "75007",
    "phone": "01 45 51 78 44",
    "lat": 48.8577336,
    "lng": 2.3221477
}, {
    "category": "2",
    "id": 14778,
    "title": "PHARMACIE CENTRALE DE L EST",
    "address": "10/12 RUE DU 08 MAI 45",
    "city": "PARIS",
    "zipcode": "75010",
    "phone": "01 40 36 52 75",
    "lat": 48.8764906,
    "lng": 2.3567965
}, {
    "category": "1",
    "id": 14372,
    "title": "PARAPHARMACIE ANNAH",
    "address": "17/19 RUE LAFAYETTE",
    "city": "PARIS",
    "zipcode": "75009",
    "phone": "07 82 89 77 79",
    "lat": 48.8740664,
    "lng": 2.3365552
}, {
    "category": "2",
    "id": 14816,
    "title": "PHARMACIE STEUER",
    "address": "191 RUE DU FAUBOURG SAINT ANTOINE",
    "city": "PARIS",
    "zipcode": "75011",
    "phone": "01 43 72 15 74",
    "lat": 48.8507002,
    "lng": 2.3818427
}, {
    "category": "3",
    "id": 14633,
    "title": "PHARMACIE OPERA",
    "address": "1 RUE AUBER",
    "city": "PARIS",
    "zipcode": "75009",
    "phone": "01 42 65 88 29",
    "lat": 48.8714782,
    "lng": 2.3307189
}, {
    "category": "2",
    "id": 14584,
    "title": "PHARMACIE GOLDFARB",
    "address": "7 RUE DE MAUBEUGE",
    "city": "PARIS",
    "zipcode": "75009",
    "phone": "01 48 78 65 84",
    "lat": 48.8766727,
    "lng": 2.3413205
}, {
    "category": "1",
    "id": 14426,
    "title": "PHARMACIE CAUMARTIN",
    "address": "24 RUE DE CAUMARTIN",
    "city": "PARIS",
    "zipcode": "75009",
    "phone": "01 42 65 10 28",
    "lat": 48.871884,
    "lng": 2.3287978
}, {
    "category": "2",
    "id": 14474,
    "title": "PHARMACIE DE LA CHAUSSEE D ANTIN",
    "address": "54 RUE DE LA CHAUSSEE D ANTIN",
    "city": "PARIS",
    "zipcode": "75009",
    "phone": "01 48 74 21 06",
    "lat": 48.8742872,
    "lng": 2.3327321
}, {
    "category": "1",
    "id": 14665,
    "title": "PHARMACIE RUE ROCHECHOUART",
    "address": "26 RUE DE ROCHECHOUART",
    "city": "PARIS",
    "zipcode": "75009",
    "phone": "01 48 78 23 97",
    "lat": 48.8781333,
    "lng": 2.3449966
}, {
    "category": "2",
    "id": 14634,
    "title": "PHARMACIE OPERA MOGADOR",
    "address": "11 RUE DE MOGADOR",
    "city": "PARIS",
    "zipcode": "75009",
    "phone": "01 48 74 22 01",
    "lat": 48.8739843,
    "lng": 2.3310205
}, {
    "category": "3",
    "id": 14520,
    "title": "PHARMACIE DES GOBELINS",
    "address": "57 AVENUE DES GOBELINS",
    "city": "PARIS",
    "zipcode": "75013",
    "phone": "01 43 37 56 98",
    "lat": 48.8341973,
    "lng": 2.3540489
}, {
    "category": "2",
    "id": 14464,
    "title": "PHARMACIE DE L ASSEMBLEE",
    "address": "7 RUE DE BOURGOGNE",
    "city": "PARIS",
    "zipcode": "75007",
    "phone": "01 45 51 54 41",
    "lat": 48.8599571,
    "lng": 2.3183491
}, {
    "category": "1",
    "id": 14580,
    "title": "PHARMACIE FOURNEUF",
    "address": "135 RUE DE CHARONNE",
    "city": "PARIS",
    "zipcode": "75011",
    "phone": "01 43 70 59 53",
    "lat": 48.8552265,
    "lng": 2.3867836
}, {
    "category": "2",
    "id": 14750,
    "title": "PHARMACIE DUCART LANDRIAU",
    "address": "44 RUE DE ROCHECHOUART",
    "city": "PARIS",
    "zipcode": "75009",
    "phone": "01 48 78 66 15",
    "lat": 48.8794562,
    "lng": 2.3461221
}, {
    "category": "1",
    "id": 14611,
    "title": "PHARMACIE MARRACHE",
    "address": "6 RUE DE DUNKERQUE",
    "city": "PARIS",
    "zipcode": "75010",
    "phone": "01 40 37 05 15",
    "lat": 48.8795759,
    "lng": 2.3574507
}, {
    "category": "2",
    "id": 14495,
    "title": "PHARMACIE DE LA TRINITE",
    "address": "57 RUE DE CHATEAUDUN",
    "city": "PARIS",
    "zipcode": "75009",
    "phone": "01 48 74 13 13",
    "lat": 48.8761741,
    "lng": 2.33262
}, {
    "category": "3",
    "id": 14788,
    "title": "PHARMACIE CENTRALE MARTYRS",
    "address": "36 RUE DES MARTYRS",
    "city": "PARIS",
    "zipcode": "75009",
    "phone": "01 48 78 10 04",
    "lat": 48.8788779,
    "lng": 2.3399817
}, {
    "category": "2",
    "id": 14479,
    "title": "PHARMACIE DE LA MADELEINE",
    "address": "5 RUE CHAUVEAU LAGARDE",
    "city": "PARIS",
    "zipcode": "75008",
    "phone": "01 42 65 39 75",
    "lat": 48.871285,
    "lng": 2.323591
}, {
    "category": "1",
    "id": 14598,
    "title": "PHARMACIE LAFRAGETTE",
    "address": "76 RUE DE SEVRES",
    "city": "PARIS",
    "zipcode": "75007",
    "phone": "01 47 34 76 01",
    "lat": 48.8480439,
    "lng": 2.3180644
}, {
    "category": "2",
    "id": 14541,
    "title": "PHARMACIE DU CHEVALERET",
    "address": "199 RUE DU CHEVALERET",
    "city": "PARIS",
    "zipcode": "75013",
    "phone": "01 45 84 86 18",
    "lat": 48.8343565,
    "lng": 2.3673629
}, {
    "category": "1",
    "id": 14772,
    "title": "PHARMACIE TOROSSIAN",
    "address": "18 RUE DE DUNKERQUE",
    "city": "PARIS",
    "zipcode": "75010",
    "phone": "09 62 37 78 09",
    "lat": 48.8809481,
    "lng": 2.3553137
}, {
    "category": "2",
    "id": 14607,
    "title": "PHARMACIE LUDERS",
    "address": "39 RUE DE L ARCADE",
    "city": "PARIS",
    "zipcode": "75008",
    "phone": "01 42 65 35 93",
    "lat": 48.8734911,
    "lng": 2.3242086
}, {
    "category": "3",
    "id": 14655,
    "title": "PHARMACIE RASPAIL 14EME",
    "address": "282 BOULEVARD RASPAIL",
    "city": "PARIS",
    "zipcode": "75014",
    "phone": "01 43 35 02 71",
    "lat": 48.8355409,
    "lng": 2.331631
}, {
    "category": "2",
    "id": 14636,
    "title": "PHARMACIE PARIS MAGENTA.",
    "address": "156 BOULEVARD DE MAGENTA",
    "city": "PARIS",
    "zipcode": "75010",
    "phone": "01 48 78 19 23",
    "lat": 48.8819449,
    "lng": 2.3509782
}, {
    "category": "1",
    "id": 14696,
    "title": "PHARMACIE DE LA GARE MONTPARNASSE",
    "address": "10 PLACE RAOUL DAUTRY",
    "city": "PARIS",
    "zipcode": "75015",
    "phone": "01 43 21 42 42",
    "lat": 48.84175,
    "lng": 2.3207282
}, {
    "category": "2",
    "id": 14732,
    "title": "PHARMACIE D2B",
    "address": "106 BOULEVARD AUGUSTE BLANQUI",
    "city": "PARIS",
    "zipcode": "75013",
    "phone": "01 43 31 62 10",
    "lat": 48.8314739,
    "lng": 2.3435194
}, {
    "category": "1",
    "id": 14408,
    "title": "PHARMACIE BICHET",
    "address": "202 RUE DU CHATEAU DES RENTIERS",
    "city": "PARIS",
    "zipcode": "75013",
    "phone": "01 45 85 15 08",
    "lat": 48.8312784,
    "lng": 2.3609931
}, {
    "category": "2",
    "id": 14383,
    "title": "PHARMACIE 217",
    "address": "217 RUE LA FAYETTE",
    "city": "PARIS",
    "zipcode": "75010",
    "phone": "01 46 07 86 44",
    "lat": 48.8816356,
    "lng": 2.364955
}, {
    "category": "3",
    "id": 14528,
    "title": "PHARMACIE DES THEATRES",
    "address": "1 RUE FONTAINE",
    "city": "PARIS",
    "zipcode": "75009",
    "phone": "01 48 74 29 10",
    "lat": 48.8807158,
    "lng": 2.3347542
}, {
    "category": "2",
    "id": 14756,
    "title": "PHARMACIE JEANNE D ARC",
    "address": "58 RUE JEANNE D ARC",
    "city": "PARIS",
    "zipcode": "75013",
    "phone": "01 45 83 78 47",
    "lat": 48.8315366,
    "lng": 2.3663321
}, {
    "category": "1",
    "id": 14347,
    "title": "GRANDE  PHARMACIE BAILLY",
    "address": "15 RUE DE ROME",
    "city": "PARIS",
    "zipcode": "75008",
    "phone": "01 53 42 10 10",
    "lat": 48.875643,
    "lng": 2.3236292
}, {
    "category": "2",
    "id": 14780,
    "title": "PHARMACIE DE LA GARE ST LAZARE",
    "address": "17 COUR D AMSTERDAM",
    "city": "PARIS",
    "zipcode": "75008",
    "phone": "01 43 87 48 98",
    "lat": 48.8775223,
    "lng": 2.3264502
}, {
    "category": "1",
    "id": 14564,
    "title": "PHARMACIE DU THEATRE",
    "address": "69 RUE DE LA GLACIERE",
    "city": "PARIS",
    "zipcode": "75013",
    "phone": "01 45 80 46 05",
    "lat": 48.8298354,
    "lng": 2.3442651
}, {
    "category": "2",
    "id": 14374,
    "title": "PARAPHARMACIE DE L EUROPE",
    "address": "46 RUE D AMSTERDAM",
    "city": "PARIS",
    "zipcode": "75009",
    "phone": "01 40 16 91 17",
    "lat": 48.8785888,
    "lng": 2.3270623
}, {
    "category": "3",
    "id": 14617,
    "title": "PHARMACIE MESNARD",
    "address": "42 AV DE BRETEUIL",
    "city": "PARIS",
    "zipcode": "75007",
    "phone": "01 47 83 59 82",
    "lat": 48.8505606,
    "lng": 2.3113954
}, {
    "category": "2",
    "id": 14442,
    "title": "PHARMACIE CONSEIL BOLIVAR -",
    "address": "38 AV SIMON BOLIVAR",
    "city": "PARIS",
    "zipcode": "75019",
    "phone": "01 42 08 60 77",
    "lat": 48.875681,
    "lng": 2.3828359
}, {
    "category": "1",
    "id": 14489,
    "title": "PHARMACIE DE LA PROVIDENCE",
    "address": "90 RUE DES MARTYRS",
    "city": "PARIS",
    "zipcode": "75018",
    "phone": "01 46 06 02 51",
    "lat": 48.8837196,
    "lng": 2.3398977
}, {
    "category": "2",
    "id": 14704,
    "title": "PHARMACIE DE LA COMETE",
    "address": "75 RUE ST DOMINIQUE",
    "city": "PARIS",
    "zipcode": "75007",
    "phone": "01 45 51 63 67",
    "lat": 48.8596766,
    "lng": 2.3091367
}, {
    "category": "1",
    "id": 14389,
    "title": "PHARMACIE ARTS ELYSEES",
    "address": "27 RUE DE MIROMESNIL",
    "city": "PARIS",
    "zipcode": "75008",
    "phone": "01 42 65 27 49",
    "lat": 48.8729876,
    "lng": 2.3158926
}, {
    "category": "2",
    "id": 14381,
    "title": "PHARMACIE STEINBERG",
    "address": "4 BOULEVARD DE LA CHAPELLE",
    "city": "PARIS",
    "zipcode": "75018",
    "phone": "01 40 05 10 47",
    "lat": 48.8845909,
    "lng": 2.3647617
}, {
    "category": "3",
    "id": 14413,
    "title": "PHARMACIE BONNEL",
    "address": "23 AV DE LA MOTTE PIQUET",
    "city": "PARIS",
    "zipcode": "75007",
    "phone": "01 47 05 40 61",
    "lat": 48.8553834,
    "lng": 2.3077471
}, {
    "category": "2",
    "id": 14749,
    "title": "PHARMACIE DU PARC",
    "address": "21 RUE DE POMMARD",
    "city": "PARIS",
    "zipcode": "75012",
    "phone": "01 53 33 01 02",
    "lat": 48.8360077,
    "lng": 2.3842238
}, {
    "category": "1",
    "id": 14725,
    "title": "PHARMACIE BUFFON",
    "address": "185 RUE DE VAUGIRARD",
    "city": "PARIS",
    "zipcode": "75015",
    "phone": "01 47 34 35 66",
    "lat": 48.8426805,
    "lng": 2.3122353
}, {
    "category": "2",
    "id": 14589,
    "title": "PHARMACIE HAUSSMANN-LABORDE",
    "address": "130 BOULEVARD HAUSSMANN",
    "city": "PARIS",
    "zipcode": "75008",
    "phone": "01 45 22 16 72",
    "lat": 48.8753358,
    "lng": 2.3169387
}, {
    "category": "1",
    "id": 14441,
    "title": "PHARMACIE COHEN BETTAN",
    "address": "57 RUE DE L OUEST",
    "city": "PARIS",
    "zipcode": "75014",
    "phone": "01 43 35 35 95",
    "lat": 48.8360344,
    "lng": 2.3193702
}, {
    "category": "2",
    "id": 14351,
    "title": "GRANDE PHARMACIE DE LA PLACE",
    "address": "5 PLACE BLANCHE",
    "city": "PARIS",
    "zipcode": "75009",
    "phone": "01 48 74 77 99",
    "lat": 48.8835333,
    "lng": 2.3321363
}, {
    "category": "3",
    "id": 14532,
    "title": "PHARMACIE DICHAMP",
    "address": "1 BOULEVARD DE REUILLY",
    "city": "PARIS",
    "zipcode": "75012",
    "phone": "01 43 43 54 24",
    "lat": 48.8392791,
    "lng": 2.3894433
}, {
    "category": "2",
    "id": 14572,
    "title": "PHARMACIE EUROPEENNE MERHOUM",
    "address": "73 RUE DE CLICHY",
    "city": "PARIS",
    "zipcode": "75009",
    "phone": "01 53 16 49 28",
    "lat": 48.8820923,
    "lng": 2.3279225
}, {
    "category": "1",
    "id": 14428,
    "title": "PHARMACIE CAYLA",
    "address": "34 RUE DES ABBESSES",
    "city": "PARIS",
    "zipcode": "75018",
    "phone": "01 46 06 69 10",
    "lat": 48.8852409,
    "lng": 2.3369326
}, {
    "category": "2",
    "id": 14480,
    "title": "PHARMACIE DE LA MAIRIE",
    "address": "27 RUE BREZIN",
    "city": "PARIS",
    "zipcode": "75014",
    "phone": "01 45 40 76 90",
    "lat": 48.8313615,
    "lng": 2.3263029
}, {
    "category": "1",
    "id": 14819,
    "title": "PHARMACIE LEPIC-BLANCHE",
    "address": "11 RUE LEPIC",
    "city": "PARIS",
    "zipcode": "75018",
    "phone": "01 46 06 01 50",
    "lat": 48.8845615,
    "lng": 2.3332878
}, {
    "category": "2",
    "id": 14718,
    "title": "GRANDE PHARMACIE DE LA NATION",
    "address": "13 PLACE DE LA NATION",
    "city": "PARIS",
    "zipcode": "75011",
    "phone": "01 43 73 24 03",
    "lat": 48.8490415,
    "lng": 2.3974317
}, {
    "category": "3",
    "id": 14702,
    "title": "PHARMACIE DU ROND POINT DES CHAMPS ELYSEES",
    "address": "49B AVENUE F DELANO ROOSEVELT",
    "city": "PARIS",
    "zipcode": "75008",
    "phone": "01 43 59 23 71",
    "lat": 48.8703055,
    "lng": 2.3098877
}, {
    "category": "2",
    "id": 14751,
    "title": "PHARMACIE EUROPEENNE",
    "address": "6 PLACE DE CLICHY",
    "city": "PARIS",
    "zipcode": "75009",
    "phone": "01 48 74 65 18",
    "lat": 48.8833435,
    "lng": 2.3280457
}, {
    "category": "1",
    "id": 14740,
    "title": "PHARMACIE DES GATINES",
    "address": "13 RUE DES GATINES",
    "city": "PARIS",
    "zipcode": "75020",
    "phone": "01 46 36 86 01",
    "lat": 48.8654835,
    "lng": 2.3976681
}, {
    "category": "2",
    "id": 14556,
    "title": "PHARMACIE DU PARC",
    "address": "3 RUE DE L AMIRAL MOUCHEZ",
    "city": "PARIS",
    "zipcode": "75013",
    "phone": "01 45 89 48 51",
    "lat": 48.8260554,
    "lng": 2.3418855
}, {
    "category": "1",
    "id": 14506,
    "title": "PHARMACIE DELOUYA",
    "address": "75 RUE DE TOLBIAC",
    "city": "PARIS",
    "zipcode": "75013",
    "phone": "01 44 24 10 00",
    "lat": 48.8270908,
    "lng": 2.3684438
}, {
    "category": "2",
    "id": 14363,
    "title": "GRANDE PHARMACIE TOLBIAC",
    "address": "53 RUE DE TOLBIAC",
    "city": "PARIS",
    "zipcode": "75013",
    "phone": "01 45 83 34 37",
    "lat": 48.8274973,
    "lng": 2.3707854
}, {
    "category": "3",
    "id": 14753,
    "title": "PHARMACIE GAMBETTA",
    "address": "02/04 PLACE GAMBETTA",
    "city": "PARIS",
    "zipcode": "75020",
    "phone": "01 47 97 50 75",
    "lat": 48.864721,
    "lng": 2.3991495
}, {
    "category": "2",
    "id": 14411,
    "title": "PHARMACIE BOIRON",
    "address": "64 BOULEVARD MALESHERBES",
    "city": "PARIS",
    "zipcode": "75008",
    "phone": "01 45 22 10 41",
    "lat": 48.878137,
    "lng": 2.3161814
}, {
    "category": "1",
    "id": 14609,
    "title": "PHARMACIE MALESHERBES",
    "address": "87 BOULEVARD MALESHERBES",
    "city": "PARIS",
    "zipcode": "75008",
    "phone": "01 45 22 18 74",
    "lat": 48.8779023,
    "lng": 2.3157291
}, {
    "category": "2",
    "id": 14807,
    "title": "PHARMACIE SARRETTE",
    "address": "3 RUE SARRETTE",
    "city": "PARIS",
    "zipcode": "75014",
    "phone": "01 43 27 17 57",
    "lat": 48.8273261,
    "lng": 2.3318948
}, {
    "category": "1",
    "id": 14686,
    "title": "PHARMACIE VALET",
    "address": "71 BOULEVARD DE PICPUS",
    "city": "PARIS",
    "zipcode": "75012",
    "phone": "01 43 43 66 20",
    "lat": 48.8468224,
    "lng": 2.3992625
}, {
    "category": "2",
    "id": 14813,
    "title": "PHARMACIE DE LA BIENFAISANCE",
    "address": "54 RUE DE LA BIENFAISANCE",
    "city": "PARIS",
    "zipcode": "75008",
    "phone": "01 45 63 73 26",
    "lat": 48.8766899,
    "lng": 2.3131667
}, {
    "category": "3",
    "id": 14410,
    "title": "PHARMACIE BOETIE CHAMPS ELYSEES",
    "address": "116 RUE DE LA BOETIE",
    "city": "PARIS",
    "zipcode": "75008",
    "phone": "01 43 59 35 50",
    "lat": 48.8715676,
    "lng": 2.3073016
}, {
    "category": "2",
    "id": 14373,
    "title": "PARAPHARMACIE BB BEAUTY",
    "address": "255 RUE DE CHARENTON",
    "city": "PARIS",
    "zipcode": "75012",
    "phone": "09 83 35 38 71",
    "lat": 48.8362682,
    "lng": 2.3923982
}, {
    "category": "1",
    "id": 14437,
    "title": "PHARMACIE CHAPTAL",
    "address": "78 BOULEVARD DES BATIGNOLLES",
    "city": "PARIS",
    "zipcode": "75017",
    "phone": "01 43 87 28 58",
    "lat": 48.8821298,
    "lng": 2.3192061
}, {
    "category": "2",
    "id": 14613,
    "title": "PHARMACIE MARX DORMOY",
    "address": "96 RUE PHILIPPE DE GIRARD",
    "city": "PARIS",
    "zipcode": "75018",
    "phone": "01 46 07 31 57",
    "lat": 48.8898335,
    "lng": 2.3604934
}, {
    "category": "1",
    "id": 14695,
    "title": "PHARMACIE ANGLAISE DES CHAMPS ELYSEES",
    "address": "130 RUE DE LA BOETIE",
    "city": "PARIS",
    "zipcode": "75008",
    "phone": "01 43 59 82 30",
    "lat": 48.8708706,
    "lng": 2.3056282
}, {
    "category": "2",
    "id": 14615,
    "title": "PHARMACIE MATHIEU LE MAREC",
    "address": "106 RUE CAULAINCOURT",
    "city": "PARIS",
    "zipcode": "75018",
    "phone": "01 46 06 15 56",
    "lat": 48.8894971,
    "lng": 2.3399209
}, {
    "category": "3",
    "id": 14571,
    "title": "PHARMACIE EUROPEENNE",
    "address": "13 RUE DE LA TREMOILLE",
    "city": "PARIS",
    "zipcode": "75008",
    "phone": "01 47 23 39 25",
    "lat": 48.8673991,
    "lng": 2.303276
}, {
    "category": "2",
    "id": 14432,
    "title": "PHARMACIE CENTRALE ORDENER",
    "address": "4 RUE ORDENER",
    "city": "PARIS",
    "zipcode": "75018",
    "phone": "01 46 07 68 53",
    "lat": 48.8903957,
    "lng": 2.3591927
}, {
    "category": "1",
    "id": 16387,
    "title": "PHARMACIE CENTRALE DE LA CHAPELLE",
    "address": "5 RUE DE LA CHAPELLE",
    "city": "PARIS",
    "zipcode": "75018",
    "phone": "01 46 07 14 84",
    "lat": 48.8908178,
    "lng": 2.359228
}, {
    "category": "2",
    "id": 14683,
    "title": "PHARMACIE TAIEB",
    "address": "60 AVENUE DE FLANDRE",
    "city": "PARIS",
    "zipcode": "75019",
    "phone": "01 40 36 25 52",
    "lat": 48.8880591,
    "lng": 2.3741105
}, {
    "category": "1",
    "id": 14682,
    "title": "PHARMACIE SUFFREN",
    "address": "82 AVENUE DE SUFFREN",
    "city": "PARIS",
    "zipcode": "75015",
    "phone": "01 45 67 16 66",
    "lat": 48.8513334,
    "lng": 2.3002178
}, {
    "category": "2",
    "id": 14733,
    "title": "PHARMACIE DALOY",
    "address": "15 17 RUE HENRI RIBIERE",
    "city": "PARIS",
    "zipcode": "75019",
    "phone": "01 53 38 60 00",
    "lat": 48.8770058,
    "lng": 2.3951651
}, {
    "category": "3",
    "id": 14568,
    "title": "PHARMACIE DUFOUR",
    "address": "25 RUE MARSOULAN",
    "city": "PARIS",
    "zipcode": "75012",
    "phone": "01 43 43 73 73",
    "lat": 48.8468169,
    "lng": 2.4032263
}, {
    "category": "2",
    "id": 14423,
    "title": "PHARMACIE CARETTE",
    "address": "79 RUE LAMARCK",
    "city": "PARIS",
    "zipcode": "75018",
    "phone": "01 46 06 33 33",
    "lat": 48.8900997,
    "lng": 2.3361661
}, {
    "category": "1",
    "id": 14785,
    "title": "GRANDE PHARMACIE LECOURBE",
    "address": "112 RUE LECOURBE",
    "city": "PARIS",
    "zipcode": "75015",
    "phone": "01 47 34 05 52",
    "lat": 48.842882,
    "lng": 2.3028915
}, {
    "category": "2",
    "id": 14662,
    "title": "PHARMACIE ROUSSY",
    "address": "203 RUE D ALESIA",
    "city": "PARIS",
    "zipcode": "75014",
    "phone": "01 45 43 15 54",
    "lat": 48.8313935,
    "lng": 2.3146877
}, {
    "category": "1",
    "id": 14493,
    "title": "PHARMACIE DE LA TERRASSE",
    "address": "35 RUE DE LEVIS",
    "city": "PARIS",
    "zipcode": "75017",
    "phone": "01 47 63 24 12",
    "lat": 48.8827438,
    "lng": 2.31478
}, {
    "category": "2",
    "id": 14449,
    "title": "PHARMACIE CTRE CIAL MASSENA 13",
    "address": "13 PLACE DE VENETIE",
    "city": "PARIS",
    "zipcode": "75013",
    "phone": "01 44 06 72 72",
    "lat": 48.8216943,
    "lng": 2.3649705
}, {
    "category": "3",
    "id": 14610,
    "title": "PHARMACIE MARCEAU",
    "address": "7 AVENUE MARCEAU",
    "city": "PARIS",
    "zipcode": "75016",
    "phone": "01 47 20 83 52",
    "lat": 48.8658423,
    "lng": 2.2993295
}, {
    "category": "2",
    "id": 14594,
    "title": "PHARMACIE KELLERMANN",
    "address": "63 BOULEVARD KELLERMANN",
    "city": "PARIS",
    "zipcode": "75013",
    "phone": "01 45 88 23 24",
    "lat": 48.8205102,
    "lng": 2.3509388
}, {
    "category": "1",
    "id": 14563,
    "title": "PHARMACIE DU RENDEZ VOUS",
    "address": "14 RUE DU RENDEZ VOUS",
    "city": "PARIS",
    "zipcode": "75012",
    "phone": "01 43 43 89 93",
    "lat": 48.8453575,
    "lng": 2.404437
}, {
    "category": "2",
    "id": 14549,
    "title": "PHARMACIE DU GRAND PARIS",
    "address": "122 AVENUE DU GENERAL LECLERC",
    "city": "PARIS",
    "zipcode": "75014",
    "phone": "01 45 39 13 14",
    "lat": 48.8248769,
    "lng": 2.3255128
}, {
    "category": "1",
    "id": 14729,
    "title": "PHARMACIE CHARBONNIER",
    "address": "2 PLACE JACQUES FROMENT",
    "city": "PARIS",
    "zipcode": "75018",
    "phone": "01 46 27 29 54",
    "lat": 48.8907008,
    "lng": 2.3313317
}, {
    "category": "2",
    "id": 14420,
    "title": "PHARMACIE BRINGER GRINTAIN",
    "address": "63 RUE DE COURCELLES",
    "city": "PARIS",
    "zipcode": "75008",
    "phone": "01 47 66 42 32",
    "lat": 48.8769918,
    "lng": 2.3055915
}, {
    "category": "3",
    "id": 16289,
    "title": "PHARMACIE CASEJUANE VITTE",
    "address": "256 RUE DE VAUGIRARD",
    "city": "PARIS",
    "zipcode": "75015",
    "phone": "01 45 32 90 90",
    "lat": 48.8397896,
    "lng": 2.3013355
}, {
    "category": "2",
    "id": 14789,
    "title": "PHARMACIE CLICHY LEGENDRE",
    "address": "96 AVENUE DE CLICHY",
    "city": "PARIS",
    "zipcode": "75017",
    "phone": "01 46 27 90 91",
    "lat": 48.8890901,
    "lng": 2.3230483
}, {
    "category": "1",
    "id": 14407,
    "title": "PHARMACIE BETHOUX ET POUGET",
    "address": "148 AV JEAN JAURES",
    "city": "PARIS",
    "zipcode": "75019",
    "phone": "01 42 08 27 71",
    "lat": 48.8869423,
    "lng": 2.387138
}, {
    "category": "2",
    "id": 14627,
    "title": "PHARMACIE NADJAR",
    "address": "96 BOULEVARD DAVOUT",
    "city": "PARIS",
    "zipcode": "75020",
    "phone": "01 43 71 07 43",
    "lat": 48.8572628,
    "lng": 2.4102661
}, {
    "category": "1",
    "id": 14692,
    "title": "PHARMACIE VOUILLE CONVENTION",
    "address": "3 RUE DE VOUILLE",
    "city": "PARIS",
    "zipcode": "75015",
    "phone": "01 48 28 21 10",
    "lat": 48.8354408,
    "lng": 2.30303
}, {
    "category": "2",
    "id": 14632,
    "title": "PHARMACIE NOUVELLE DES BATIGNOLLES",
    "address": "23 RUE DES MOINES",
    "city": "PARIS",
    "zipcode": "75017",
    "phone": "01 46 27 04 02",
    "lat": 48.8888533,
    "lng": 2.3192941
}, {
    "category": "3",
    "id": 14619,
    "title": "PHARMACIE MINEL",
    "address": "123 AVENUE DE CLICHY",
    "city": "PARIS",
    "zipcode": "75017",
    "phone": "01 46 27 67 50",
    "lat": 48.8900144,
    "lng": 2.3208697
}, {
    "category": "2",
    "id": 14412,
    "title": "PHARMACIE BOKOBZA",
    "address": "106 RUE PETIT",
    "city": "PARIS",
    "zipcode": "75019",
    "phone": "01 42 08 69 08",
    "lat": 48.886043,
    "lng": 2.3918319
}, {
    "category": "1",
    "id": 14498,
    "title": "PHARMACIE DE L'EDEN",
    "address": "191 RUE CHAMPIONNET",
    "city": "PARIS",
    "zipcode": "75018",
    "phone": "01 46 27 37 64",
    "lat": 48.8940312,
    "lng": 2.3325614
}, {
    "category": "2",
    "id": 14546,
    "title": "PHARMACIE DU DRUGSTORE",
    "address": "133 AVENUE DES CHAMPS ELYSEES",
    "city": "PARIS",
    "zipcode": "75008",
    "phone": "01 47 20 39 25",
    "lat": 48.8725243,
    "lng": 2.2970531
}, {
    "category": "1",
    "id": 14477,
    "title": "PHARMACIE DE LA GARE",
    "address": "1 RUE JOUFFROY D ABBANS",
    "city": "PARIS",
    "zipcode": "75017",
    "phone": "01 47 63 48 99",
    "lat": 48.8870792,
    "lng": 2.3133988
}, {
    "category": "2",
    "id": 14446,
    "title": "PHARMACIE COURCELLES",
    "address": "106 BOULEVARD DE COURCELLES",
    "city": "PARIS",
    "zipcode": "75017",
    "phone": "01 47 63 45 48",
    "lat": 48.8791481,
    "lng": 2.3020348
}, {
    "category": "3",
    "id": 14583,
    "title": "PHARMACIE GEORGEL RENOUL SELARL",
    "address": "90 AVENUE DE SAINT OUEN",
    "city": "PARIS",
    "zipcode": "75018",
    "phone": "01 46 27 47 25",
    "lat": 48.8932845,
    "lng": 2.3277015
}, {
    "category": "2",
    "id": 14804,
    "title": "PHARMACIE PORTE DE VINCENNES",
    "address": "86 BOULEVARD SOULT",
    "city": "PARIS",
    "zipcode": "75012",
    "phone": "01 43 43 13 68",
    "lat": 48.8464825,
    "lng": 2.4113271
}, {
    "category": "1",
    "id": 14660,
    "title": "PHARMACIE RONCIN",
    "address": "27 RUE JOUFFROY D ABBANS",
    "city": "PARIS",
    "zipcode": "75017",
    "phone": "01 47 63 56 80",
    "lat": 48.8859605,
    "lng": 2.3098925
}, {
    "category": "2",
    "id": 14712,
    "title": "GRANDE PHARMACIE DU COMMERCE",
    "address": "89 RUE DU COMMERCE",
    "city": "PARIS",
    "zipcode": "75015",
    "phone": "01 48 28 43 50",
    "lat": 48.8442092,
    "lng": 2.2936115
}, {
    "category": "1",
    "id": 14801,
    "title": "PHARMACIE PITOUN ZANA",
    "address": "19 RUE DE LOURMEL",
    "city": "PARIS",
    "zipcode": "75015",
    "phone": "01 45 78 86 18",
    "lat": 48.8492266,
    "lng": 2.2914519
}, {
    "category": "2",
    "id": 14424,
    "title": "PHARMACiE CARNOT",
    "address": "151 BOULEVARD MALESHERBES",
    "city": "PARIS",
    "zipcode": "75017",
    "phone": "01 42 27 50 40",
    "lat": 48.8848708,
    "lng": 2.3071961
}, {
    "category": "3",
    "id": 14713,
    "title": "GRANDE PHARMACIE WAGRAM",
    "address": "239 RUE DU FAUBOURG ST HONORE",
    "city": "PARIS",
    "zipcode": "75008",
    "phone": "01 42 67 27 60",
    "lat": 48.8774641,
    "lng": 2.2983301
}, {
    "category": "2",
    "id": 14444,
    "title": "PHARMACIE CONTE ET LORRAINE",
    "address": "50 AVENUE DE WAGRAM",
    "city": "PARIS",
    "zipcode": "75017",
    "phone": "01 47 63 39 93",
    "lat": 48.8785858,
    "lng": 2.2987799
}, {
    "category": "1",
    "id": 14812,
    "title": "PHARMACIE BOISSIERE",
    "address": "43-45 AVENUE KLEBER",
    "city": "PARIS",
    "zipcode": "75016",
    "phone": "01 47 27 83 68",
    "lat": 48.8683454,
    "lng": 2.2914488
}, {
    "category": "2",
    "id": 14458,
    "title": "PHARMACIE DE BIR HAKEIM",
    "address": "6 BOULEVARD DE GRENELLE",
    "city": "PARIS",
    "zipcode": "75015",
    "phone": "01 45 77 33 30",
    "lat": 48.8537049,
    "lng": 2.2890224
}, {
    "category": "1",
    "id": 14679,
    "title": "PHARMACIE SOUIED",
    "address": "121 AVENUE DE ST OUEN",
    "city": "PARIS",
    "zipcode": "75017",
    "phone": "01 46 27 22 32",
    "lat": 48.895329,
    "lng": 2.3279521
}, {
    "category": "2",
    "id": 14706,
    "title": "PHARMACIE DUBLY",
    "address": "72 AVENUE KLEBER",
    "city": "PARIS",
    "zipcode": "75016",
    "phone": "01 47 27 97 51",
    "lat": 48.8676402,
    "lng": 2.2901533
}, {
    "category": "3",
    "id": 14539,
    "title": "PHARMACIE DU BOULEVARD NEY",
    "address": "1 AVENUE DE LA PTE DE MONTMARTRE",
    "city": "PARIS",
    "zipcode": "75018",
    "phone": "01 42 23 17 87",
    "lat": 48.8978608,
    "lng": 2.3374046
}, {
    "category": "2",
    "id": 19769,
    "title": "PHARMACIE ZEMIRO",
    "address": "28 AVENUE DU GENERAL DE GAULLE CENTRE COMMERCIAL BEL EST",
    "city": "BAGNOLET",
    "zipcode": "93170",
    "phone": "01 43 62 95 45",
    "lat": 48.8653078,
    "lng": 2.4153621
}, {
    "category": "1",
    "id": 14709,
    "title": "PHARMACIE DE LA PORTE MONTMARTRE",
    "address": "142 BOULEVARD NEY",
    "city": "PARIS",
    "zipcode": "75018",
    "phone": "01 46 06 24 29",
    "lat": 48.8979884,
    "lng": 2.3376967
}, {
    "category": "2",
    "id": 18191,
    "title": "PHARMACIE DU THEATRE",
    "address": "42 RUE DU THEATRE",
    "city": "PARIS",
    "zipcode": "75015",
    "phone": "01 45 77 15 65",
    "lat": 48.848872,
    "lng": 2.2881773
}, {
    "category": "1",
    "id": 17270,
    "title": "PHARMACIE DE PARIS",
    "address": "52 AV HENRI GINOUX",
    "city": "MONTROUGE",
    "zipcode": "92120",
    "phone": "01 42 53 01 26",
    "lat": 48.8184105,
    "lng": 2.3223942
}, {
    "category": "2",
    "id": 15211,
    "title": "AUCHAN ESPACE SANTE BEAUTE",
    "address": "AUCHAN BAGNOLET SECTEUR PGC 26 AVENUE DU GENERAL DE GAULLE F 67554",
    "city": "BAGNOLET",
    "zipcode": "93170",
    "phone": "01 49 72 62 19",
    "lat": 48.8656117,
    "lng": 2.4161756
}, {
    "category": "3",
    "id": 14409,
    "title": "PHARMACIE BODINIER IMANE",
    "address": "9 AVENUE DE LA GRANDE ARMEE",
    "city": "PARIS",
    "zipcode": "75016",
    "phone": "01 45 00 10 90",
    "lat": 48.8743325,
    "lng": 2.2919224
}, {
    "category": "2",
    "id": 14529,
    "title": "PHARMACIE DES TROIS AVENUES",
    "address": "29 AVENUE DES TERNES",
    "city": "PARIS",
    "zipcode": "75017",
    "phone": "01 46 22 28 12",
    "lat": 48.8781923,
    "lng": 2.2946752
}, {
    "category": "1",
    "id": 14384,
    "title": "PHARMACIE 24",
    "address": "24 AVENUE MAC MAHON",
    "city": "PARIS",
    "zipcode": "75017",
    "phone": "01 43 80 11 96",
    "lat": 48.8783534,
    "lng": 2.2945077
}, {
    "category": "2",
    "id": 14447,
    "title": "PHARMACIE COURCELLES DEMOURS",
    "address": "162 R DE COURCELLES 94 RUE PIERRE DEMOURS",
    "city": "PARIS",
    "zipcode": "75017",
    "phone": "01 47 63 60 67",
    "lat": 48.8833,
    "lng": 2.2991341
}, {
    "category": "1",
    "id": 14630,
    "title": "PHARMACIE NIEL CASSAM",
    "address": "16 AVENUE NIEL",
    "city": "PARIS",
    "zipcode": "75017",
    "phone": "01 47 54 00 39",
    "lat": 48.8800789,
    "lng": 2.295198
}, {
    "category": "2",
    "id": 14685,
    "title": "PHARMACIE TREIGNIER PORTE BRIANCON",
    "address": "94 BOULEVARD LEFEBVRE",
    "city": "PARIS",
    "zipcode": "75015",
    "phone": "01 48 28 32 55",
    "lat": 48.8281013,
    "lng": 2.3007376
}, {
    "category": "3",
    "id": 14774,
    "title": "PHARMACIE VOILLOT",
    "address": "7 RUE DE L ALBONI",
    "city": "PARIS",
    "zipcode": "75016",
    "phone": "01 42 88 20 34",
    "lat": 48.8581661,
    "lng": 2.2848933
}, {
    "category": "2",
    "id": 16737,
    "title": "PHARMACIE DE L EGLISE",
    "address": "46  AVENUE DE LA REPUBLIQUE",
    "city": "MONTROUGE",
    "zipcode": "92120",
    "phone": "01 42 53 00 46",
    "lat": 48.8179818,
    "lng": 2.3189719
}, {
    "category": "1",
    "id": 14755,
    "title": "PHARMACIE GOFFIN LEROUX",
    "address": "9 PLACE CHARLES MICHELS",
    "city": "PARIS",
    "zipcode": "75015",
    "phone": "01 45 78 01 51",
    "lat": 48.8468905,
    "lng": 2.2862845
}, {
    "category": "2",
    "id": 14726,
    "title": "PHARMACIE CASSAM",
    "address": "36 AVENUE NIEL",
    "city": "PARIS",
    "zipcode": "75017",
    "phone": "01 47 63 37 23",
    "lat": 48.8817007,
    "lng": 2.2959783
}, {
    "category": "1",
    "id": 14379,
    "title": "PHARM' A 6",
    "address": "9/11 RUE ROBERT DE FLERS",
    "city": "PARIS",
    "zipcode": "75015",
    "phone": "01 56 77 12 51",
    "lat": 48.850013,
    "lng": 2.2847075
}, {
    "category": "2",
    "id": 14602,
    "title": "PHARMACIE LECLERC",
    "address": "29 RUE PIERRE DEMOURS",
    "city": "PARIS",
    "zipcode": "75017",
    "phone": "01 47 63 71 49",
    "lat": 48.8816516,
    "lng": 2.2948623
}, {
    "category": "3",
    "id": 18151,
    "title": "PHARMACiE DU ROND POINT",
    "address": "62 AVENUE DE LA REPUBLIQUE",
    "city": "MONTROUGE",
    "zipcode": "92120",
    "phone": "01 42 53 01 53",
    "lat": 48.8170591,
    "lng": 2.3184513
}, {
    "category": "2",
    "id": 18660,
    "title": "PHARMACIE KIV",
    "address": "63 AVENUE DE FONTAINEBLEAU",
    "city": "LE KREMLIN-BICETRE",
    "zipcode": "94270",
    "phone": "01 46 58 28 06",
    "lat": 48.8116224,
    "lng": 2.3627837
}, {
    "category": "1",
    "id": 14554,
    "title": "PHARMACIE DU NOUVEAU BOUCICAUT",
    "address": "95 RUE DE LA CONVENTION",
    "city": "PARIS",
    "zipcode": "75015",
    "phone": "01 45 54 29 19",
    "lat": 48.8419105,
    "lng": 2.2865872
}, {
    "category": "2",
    "id": 19336,
    "title": "PHARMACIE ROBESPIERRE",
    "address": "196 RUE DE PARIS",
    "city": "MONTREUIL",
    "zipcode": "93100",
    "phone": "01 42 87 02 64",
    "lat": 48.8557058,
    "lng": 2.4221308
}, {
    "category": "1",
    "id": 14421,
    "title": "PHARMACIE CAILLAULT",
    "address": "2 RUE PIERRE DEMOURS",
    "city": "PARIS",
    "zipcode": "75017",
    "phone": "01 45 74 65 23",
    "lat": 48.8797318,
    "lng": 2.2914705
}, {
    "category": "2",
    "id": 14647,
    "title": "PHARMACIE PLACE DE MEXICO",
    "address": "9 PLACE DE MEXICO",
    "city": "PARIS",
    "zipcode": "75016",
    "phone": "01 47 27 92 28",
    "lat": 48.8656157,
    "lng": 2.2833141
}, {
    "category": "3",
    "id": 14708,
    "title": "PHARMACIE DE LA PORTE D ASNIERES",
    "address": "96 BOULEVARD BERTHIER",
    "city": "PARIS",
    "zipcode": "75017",
    "phone": "01 47 64 94 12",
    "lat": 48.890048,
    "lng": 2.3034281
}, {
    "category": "2",
    "id": 15847,
    "title": "PHARMACIE ECCEL DANJON",
    "address": "186 RUE DE PARIS",
    "city": "MONTREUIL",
    "zipcode": "93100",
    "phone": "01 48 97 14 41",
    "lat": 48.855861,
    "lng": 2.422953
}, {
    "category": "1",
    "id": 14356,
    "title": "GRANDE PHARMACIE DU 15 EME",
    "address": "119 RUE SAINT CHARLES",
    "city": "PARIS",
    "zipcode": "75015",
    "phone": "01 45 77 88 46",
    "lat": 48.8444418,
    "lng": 2.2838542
}, {
    "category": "2",
    "id": 18306,
    "title": "PHARMACIE ESPACE PHARMA",
    "address": "98 AVENUE DU GENERAL DE GAULLE",
    "city": "SAINT-MANDE",
    "zipcode": "94160",
    "phone": "01 43 28 45 68",
    "lat": 48.8379513,
    "lng": 2.4173632
}, {
    "category": "1",
    "id": 14673,
    "title": "PHARMACIE SATELLITE",
    "address": "118 AVENUE DE VILLIERS",
    "city": "PARIS",
    "zipcode": "75017",
    "phone": "01 43 80 86 09",
    "lat": 48.8854057,
    "lng": 2.2960441
}, {
    "category": "2",
    "id": 14382,
    "title": "PHARMACIE 111",
    "address": "111 AVENUE VICTOR HUGO",
    "city": "PARIS",
    "zipcode": "75016",
    "phone": "01 45 53 82 20",
    "lat": 48.8684277,
    "lng": 2.2829504
}, {
    "category": "3",
    "id": 14727,
    "title": "PHARMACIE CENTRALE DE PASSY",
    "address": "38 RUE DE PASSY",
    "city": "PARIS",
    "zipcode": "75016",
    "phone": "01 42 88 21 68",
    "lat": 48.8578727,
    "lng": 2.2806384
}, {
    "category": "2",
    "id": 14359,
    "title": "GRANDE PHARMACIE DURET",
    "address": "29 RUE DURET",
    "city": "PARIS",
    "zipcode": "75016",
    "phone": "01 45 00 10 20",
    "lat": 48.8753435,
    "lng": 2.2863758
}, {
    "category": "1",
    "id": 14478,
    "title": "PHARMACIE DE LA GRANDE ARMEE",
    "address": "63 AVENUE DE LA GRANDE ARMEE",
    "city": "PARIS",
    "zipcode": "75016",
    "phone": "01 45 00 56 34",
    "lat": 48.8760685,
    "lng": 2.2866246
}, {
    "category": "2",
    "id": 14744,
    "title": "PHARMACIE DU CASTOR",
    "address": "63 RUE LAUGIER",
    "city": "PARIS",
    "zipcode": "75017",
    "phone": "01 45 72 36 95",
    "lat": 48.8836497,
    "lng": 2.2926891
}, {
    "category": "1",
    "id": 15954,
    "title": "PHARMACIE ASSAAD",
    "address": "19 RUE DU PRE SAINT GERVAIS CENTRE COMMERCIAL VERPANTIN",
    "city": "PANTIN",
    "zipcode": "93500",
    "phone": "01 48 45 18 53",
    "lat": 48.8905538,
    "lng": 2.403306
}, {
    "category": "2",
    "id": 18027,
    "title": "PHARMACIE DU METRO",
    "address": "55 AVENUE JEAN LOLIVE",
    "city": "PANTIN",
    "zipcode": "93500",
    "phone": "01 48 45 14 50",
    "lat": 48.8913732,
    "lng": 2.4022848
}, {
    "category": "3",
    "id": 14487,
    "title": "PHARMACIE DE LA PORTE MAILLOT",
    "address": "68 AVENUE DE LA GRANDE ARMEE",
    "city": "PARIS",
    "zipcode": "75017",
    "phone": "01 45 74 17 31",
    "lat": 48.8772106,
    "lng": 2.2856596
}, {
    "category": "2",
    "id": 18272,
    "title": "PHARMACIE DUPAIN",
    "address": "6 PLACE JEAN JAURES",
    "city": "MONTROUGE",
    "zipcode": "92120",
    "phone": "01 47 35 29 93",
    "lat": 48.8163885,
    "lng": 2.3107276
}, {
    "category": "1",
    "id": 14601,
    "title": "PHARMACIE LB CHOPIN",
    "address": "1 RUE DUBAN",
    "city": "PARIS",
    "zipcode": "75016",
    "phone": "01 42 88 63 36",
    "lat": 48.8564369,
    "lng": 2.2777418
}, {
    "category": "2",
    "id": 14418,
    "title": "PHARMACIE BRAITMAN",
    "address": "1 PLACE VICTOR HUGO",
    "city": "PARIS",
    "zipcode": "75016",
    "phone": "01 45 00 71 96",
    "lat": 48.8677072,
    "lng": 2.2792421
}, {
    "category": "1",
    "id": 17901,
    "title": "PHARMACIE DU FORT DE BICETRE",
    "address": "25 AVENUE CHARLES GIDE",
    "city": "LE KREMLIN-BICETRE",
    "zipcode": "94270",
    "phone": "01 46 72 16 29",
    "lat": 48.807271,
    "lng": 2.3535078
}, {
    "category": "2",
    "id": 14436,
    "title": "PHARMACIE CHAMPERRET SEROR",
    "address": "12 AVENUE STEPHANE MALLARME",
    "city": "PARIS",
    "zipcode": "75017",
    "phone": "01 43 80 58 00",
    "lat": 48.8861523,
    "lng": 2.2916521
}, {
    "category": "3",
    "id": 14481,
    "title": "PHARMACIE DE LA MAIRIE",
    "address": "82 RUE DE LA POMPE",
    "city": "PARIS",
    "zipcode": "75016",
    "phone": "01 45 04 73 66",
    "lat": 48.8636506,
    "lng": 2.2773877
}, {
    "category": "2",
    "id": 14690,
    "title": "PHARMACIE VICTOR HUGO",
    "address": "156 AVENUE VICTOR HUGO",
    "city": "PARIS",
    "zipcode": "75016",
    "phone": "01 47 27 68 14",
    "lat": 48.8666727,
    "lng": 2.2775706
}, {
    "category": "1",
    "id": 14431,
    "title": "PHARMACIE CENTRALE MIRABEAU",
    "address": "7 ROND POINT DU PONT MIRABEAU",
    "city": "PARIS",
    "zipcode": "75015",
    "phone": "01 45 77 85 23",
    "lat": 48.8456715,
    "lng": 2.2773343
}, {
    "category": "2",
    "id": 14595,
    "title": "PHARMACIE LA FONTAINE",
    "address": "4 RUE JEAN DE LA FONTAINE",
    "city": "PARIS",
    "zipcode": "75016",
    "phone": "01 42 88 79 51",
    "lat": 48.852839,
    "lng": 2.2753905
}, {
    "category": "1",
    "id": 19575,
    "title": "PHARMACIE SOUSSAN",
    "address": "30 AVENUE JEAN JAURES",
    "city": "PANTIN",
    "zipcode": "93500",
    "phone": "01 48 45 04 33",
    "lat": 48.901126,
    "lng": 2.38943
}, {
    "category": "2",
    "id": 14516,
    "title": "PHARMACIE DES CEVENNES",
    "address": "47 RUE BALARD",
    "city": "PARIS",
    "zipcode": "75015",
    "phone": "01 45 57 97 51",
    "lat": 48.8420965,
    "lng": 2.278165
}, {
    "category": "3",
    "id": 17483,
    "title": "PHARMACIE DES ECOLES",
    "address": "26 RUE RAYMOND LEFEBVRE",
    "city": "BAGNOLET",
    "zipcode": "93170",
    "phone": "01 43 62 73 80",
    "lat": 48.8715733,
    "lng": 2.4261483
}, {
    "category": "2",
    "id": 16592,
    "title": "PHARMACIE DARONDEAU",
    "address": "5 AVENUE GEORGE SAND",
    "city": "SAINT-DENIS",
    "zipcode": "93200",
    "phone": "01 48 20 01 82",
    "lat": 48.9070318,
    "lng": 2.3644001
}, {
    "category": "1",
    "id": 14648,
    "title": "PHARMACIE PONSARD",
    "address": "4 CHAUSSEE DE LA MUETTE",
    "city": "PARIS",
    "zipcode": "75016",
    "phone": "01 42 88 18 30",
    "lat": 48.8581888,
    "lng": 2.2741256
}, {
    "category": "2",
    "id": 14693,
    "title": "PHARMACIE ZANA",
    "address": "63 RUE DE LA FAISANDERIE",
    "city": "PARIS",
    "zipcode": "75016",
    "phone": "01 47 27 36 76",
    "lat": 48.8682075,
    "lng": 2.2757306
}, {
    "category": "1",
    "id": 18942,
    "title": "PHARMACIE MEZRAHI - ABIHSSIRA",
    "address": "35 RUE JEAN BLEUZEN",
    "city": "VANVES",
    "zipcode": "92170",
    "phone": "01 46 42 19 53",
    "lat": 48.8218727,
    "lng": 2.2936264
}, {
    "category": "2",
    "id": 15758,
    "title": "PARAPHARMACIE LECLERC",
    "address": "167 BOULEVARD VICTOR HUGO L AUBRIERE",
    "city": "CLICHY",
    "zipcode": "92110",
    "phone": "01 41 40 20 07",
    "lat": 48.9045272,
    "lng": 2.3206596
}, {
    "category": "3",
    "id": 18293,
    "title": "PHARMACIE ENCAOUA",
    "address": "40 RUE HENRI BARBUSSE",
    "city": "CLICHY",
    "zipcode": "92110",
    "phone": "01 47 37 03 35",
    "lat": 48.8996979,
    "lng": 2.3059436
}, {
    "category": "2",
    "id": 14675,
    "title": "PHARMACIE SEGUIN",
    "address": "141 RUE DE LA TOUR",
    "city": "PARIS",
    "zipcode": "75016",
    "phone": "01 45 04 32 33",
    "lat": 48.8636683,
    "lng": 2.2725789
}, {
    "category": "1",
    "id": 15501,
    "title": "GRANDE PHARMACIE LEVALLOIS",
    "address": "42 RUE PRESIDENT WILSON",
    "city": "LEVALLOIS-PERRET",
    "zipcode": "92300",
    "phone": "01 47 37 43 16",
    "lat": 48.8915683,
    "lng": 2.2913941
}, {
    "category": "2",
    "id": 17647,
    "title": "PHARMACIE DES VIGNERONS",
    "address": "2 RUE DU MARECHAL MAUNOURY",
    "city": "VINCENNES",
    "zipcode": "94300",
    "phone": "01 43 28 05 81",
    "lat": 48.8439571,
    "lng": 2.4310323
}, {
    "category": "1",
    "id": 15561,
    "title": "MONOPRIX N1214",
    "address": "20 RUE GABRIEL PERI",
    "city": "LEVALLOIS-PERRET",
    "zipcode": "92300",
    "phone": "01 47 57 67 95",
    "lat": 48.8904899,
    "lng": 2.2893732
}, {
    "category": "2",
    "id": 19723,
    "title": "PHARMACIE VICTOR HUGO",
    "address": "73 RUE VICTOR HUGO",
    "city": "LEVALLOIS-PERRET",
    "zipcode": "92300",
    "phone": "01 47 37 08 04",
    "lat": 48.8956922,
    "lng": 2.2964067
}, {
    "category": "3",
    "id": 15523,
    "title": "GRDE PHARMACIE DES 4 CHEMINS",
    "address": "74 AVENUE JEAN JAURES",
    "city": "PANTIN",
    "zipcode": "93500",
    "phone": "01 48 45 73 71",
    "lat": 48.9035442,
    "lng": 2.3923967
}, {
    "category": "2",
    "id": 19649,
    "title": "PHARMACIE TRAN VAN THOAN",
    "address": "73 81 AVENUE ARISTIDE BRIAND 34 MAIL FORUM 20",
    "city": "ARCUEIL",
    "zipcode": "94110",
    "phone": "01 45 46 04 50",
    "lat": 48.8053455,
    "lng": 2.325805
}, {
    "category": "1",
    "id": 14396,
    "title": "PHARMACIE BAILLY",
    "address": "48BIS AVENUE MOZART",
    "city": "PARIS",
    "zipcode": "75016",
    "phone": "01 42 88 13 81",
    "lat": 48.8553166,
    "lng": 2.2697994
}, {
    "category": "2",
    "id": 19650,
    "title": "PHARMACIE TREBOIS",
    "address": "35 RUE TREBOIS",
    "city": "LEVALLOIS-PERRET",
    "zipcode": "92300",
    "phone": "01 47 37 18 65",
    "lat": 48.8917806,
    "lng": 2.289117
}, {
    "category": "1",
    "id": 16772,
    "title": "PHARMACIE DE L HOPITAL",
    "address": "19BIS RUE ERNEST RENAN",
    "city": "ISSY-LES-MOULINEAUX",
    "zipcode": "92130",
    "phone": "01 40 93 51 00",
    "lat": 48.8281368,
    "lng": 2.2814622
}, {
    "category": "2",
    "id": 19049,
    "title": "PHARMACIE NOUVELLE",
    "address": "92 RUE ARISTIDE BRIAND",
    "city": "LEVALLOIS-PERRET",
    "zipcode": "92300",
    "phone": "01 47 37 13 84",
    "lat": 48.8933284,
    "lng": 2.2906624
}, {
    "category": "3",
    "id": 15419,
    "title": "GRANDE PHARMACIE DE LA GARE",
    "address": "23 RUE MONTREUIL",
    "city": "VINCENNES",
    "zipcode": "94300",
    "phone": "01 43 28 22 44",
    "lat": 48.8479533,
    "lng": 2.4345076
}, {
    "category": "2",
    "id": 15550,
    "title": "LA PHARMACIE MODERNE",
    "address": "112 AVENUE DE LA REPUBLIQUE",
    "city": "AUBERVILLIERS",
    "zipcode": "93300",
    "phone": "01 48 33 79 53",
    "lat": 48.9056852,
    "lng": 2.3897597
}, {
    "category": "1",
    "id": 17260,
    "title": "PHARMACIE DE NEUILLY",
    "address": "43 RUE DE CHARTRES",
    "city": "NEUILLY-SUR-SEINE",
    "zipcode": "92200",
    "phone": "01 46 24 03 24",
    "lat": 48.8821772,
    "lng": 2.2772383
}, {
    "category": "2",
    "id": 15461,
    "title": "GRANDE PHARMACIE DE LA MAIRIE",
    "address": "4 PLACE DE LA REPUBLIQUE",
    "city": "LEVALLOIS-PERRET",
    "zipcode": "92300",
    "phone": "01 47 37 03 26",
    "lat": 48.8934457,
    "lng": 2.2886715
}, {
    "category": "1",
    "id": 17676,
    "title": "PHARMACIE D'ISSY",
    "address": "44 RUE ERNEST RENAN",
    "city": "ISSY-LES-MOULINEAUX",
    "zipcode": "92130",
    "phone": "01 40 93 44 64",
    "lat": 48.8273438,
    "lng": 2.2796311
}, {
    "category": "2",
    "id": 15443,
    "title": "GRANDE PHARMACIE ANATOLE FRANC",
    "address": "72 RUE ANATOLE FRANCE",
    "city": "LEVALLOIS-PERRET",
    "zipcode": "92300",
    "phone": "01 47 57 45 55",
    "lat": 48.8919841,
    "lng": 2.2852947
}, {
    "category": "3",
    "id": 17844,
    "title": "PHARMACIE DU CHATEAU",
    "address": "7 AVENUE DU CHATEAU",
    "city": "VINCENNES",
    "zipcode": "94300",
    "phone": "01 43 28 03 63",
    "lat": 48.8455809,
    "lng": 2.4365916
}, {
    "category": "2",
    "id": 19555,
    "title": "PHARMACIE SINE NDEFEU",
    "address": "55 RUE PAUL VAILLANT COUTURIER",
    "city": "MALAKOFF",
    "zipcode": "92240",
    "phone": "01 42 53 41 62",
    "lat": 48.8138895,
    "lng": 2.295533
}, {
    "category": "1",
    "id": 14545,
    "title": "PHARMACIE DU DOCTEUR BLANCHE",
    "address": "38 RUE DU DOCTEUR BLANCHE",
    "city": "PARIS",
    "zipcode": "75016",
    "phone": "01 46 47 82 90",
    "lat": 48.8541088,
    "lng": 2.2652331
}, {
    "category": "2",
    "id": 16364,
    "title": "PHARMACIE CENTRALE",
    "address": "18 RUE DU GENERAL LECLERC",
    "city": "ISSY-LES-MOULINEAUX",
    "zipcode": "92130",
    "phone": "01 40 93 44 74",
    "lat": 48.8261471,
    "lng": 2.2779518
}, {
    "category": "1",
    "id": 14808,
    "title": "PHARMACIE DE LA CROIX BLEUE",
    "address": "43 RUE D'AUTEUIL",
    "city": "PARIS",
    "zipcode": "75016",
    "phone": "01 42 88 07 96",
    "lat": 48.8476557,
    "lng": 2.2652293
}, {
    "category": "2",
    "id": 14340,
    "title": "GRANDE PHARMACIE JOUVENET",
    "address": "49 RUE CHARDON LAGACHE",
    "city": "PARIS",
    "zipcode": "75016",
    "phone": "01 42 88 37 61",
    "lat": 48.8430195,
    "lng": 2.2650926
}, {
    "category": "3",
    "id": 14468,
    "title": "PHARMACIE DE L HELIPORT",
    "address": "6 ALLEE DES FRERES VOISINS",
    "city": "PARIS",
    "zipcode": "75015",
    "phone": "01 45 58 37 45",
    "lat": 48.8286827,
    "lng": 2.2727196
}, {
    "category": "2",
    "id": 14759,
    "title": "PHARMACIE LA PORTE D AUTEUIL",
    "address": "52 RUE D AUTEUIL",
    "city": "PARIS",
    "zipcode": "75016",
    "phone": "01 42 88 27 38",
    "lat": 48.8481649,
    "lng": 2.2627373
}, {
    "category": "1",
    "id": 16015,
    "title": "PHARMACIE BAUDIN",
    "address": "82 RUE BAUDIN",
    "city": "LEVALLOIS-PERRET",
    "zipcode": "92300",
    "phone": "01 42 70 95 95",
    "lat": 48.8987191,
    "lng": 2.2875468
}, {
    "category": "2",
    "id": 15444,
    "title": "GRANDE PHARMACIE BEAUJON",
    "address": "7 AVENUE CLAUDE DEBUSSY",
    "city": "CLICHY",
    "zipcode": "92110",
    "phone": "01 47 37 33 58",
    "lat": 48.9097854,
    "lng": 2.3081297
}, {
    "category": "1",
    "id": 16068,
    "title": "PHARMACIE BERNARD DAHAN",
    "address": "106 AVENUE CHARLES DE GAULLE",
    "city": "NEUILLY-SUR-SEINE",
    "zipcode": "92200",
    "phone": "01 46 24 14 96",
    "lat": 48.8831536,
    "lng": 2.2686063
}, {
    "category": "2",
    "id": 17642,
    "title": "PHARMACIE DES TROIS VILLES",
    "address": "5 AVENUE ANATOLE FRANCE",
    "city": "PANTIN",
    "zipcode": "93500",
    "phone": "01 48 45 78 50",
    "lat": 48.8944261,
    "lng": 2.4253896
}, {
    "category": "3",
    "id": 19160,
    "title": "PHARMACIE PICARD",
    "address": "4 PLACE JEAN MERMOZ",
    "city": "CHATILLON",
    "zipcode": "92320",
    "phone": "01 47 35 34 48",
    "lat": 48.8096134,
    "lng": 2.2919442
}, {
    "category": "2",
    "id": 15179,
    "title": "AMAR MAURIERE ZINSIUS",
    "address": "38 RUE DIDEROT",
    "city": "ISSY-LES-MOULINEAUX",
    "zipcode": "92130",
    "phone": "01 46 42 16 51",
    "lat": 48.824134,
    "lng": 2.2725892
}, {
    "category": "1",
    "id": 17482,
    "title": "PHARMACIE DES ECOLES",
    "address": "22 RUE JEAN JAURES",
    "city": "VILLEJUIF",
    "zipcode": "94800",
    "phone": "01 46 77 61 22",
    "lat": 48.7954211,
    "lng": 2.3661967
}, {
    "category": "2",
    "id": 19374,
    "title": "PHARMACIE ROUSTAN",
    "address": "106 RUE VERON",
    "city": "ALFORTVILLE",
    "zipcode": "94140",
    "phone": "01 43 75 28 73",
    "lat": 48.8100866,
    "lng": 2.4142047
}, {
    "category": "1",
    "id": 16446,
    "title": "PHARMACIE CHATEAU VILLIERS",
    "address": "9 RUE GREFFULHE",
    "city": "LEVALLOIS-PERRET",
    "zipcode": "92300",
    "phone": "01 47 58 75 81",
    "lat": 48.8940103,
    "lng": 2.2765274
}, {
    "category": "2",
    "id": 17699,
    "title": "PHARMACIE DU 130",
    "address": "130 AV CHARLES DE GAULLE",
    "city": "NEUILLY-SUR-SEINE",
    "zipcode": "92200",
    "phone": "01 46 24 03 17",
    "lat": 48.8833215,
    "lng": 2.2662009
}, {
    "category": "3",
    "id": 16470,
    "title": "PHARMACIE CITTANOVA PERICAUD",
    "address": "12 AV LOUIS PASTEUR",
    "city": "BAGNEUX",
    "zipcode": "92220",
    "phone": "01 46 65 89 15",
    "lat": 48.7982,
    "lng": 2.317879
}, {
    "category": "2",
    "id": 17418,
    "title": "PHARMACIE DES ARCADES",
    "address": "10 RUE GUICHARD",
    "city": "CACHAN",
    "zipcode": "94230",
    "phone": "01 46 65 64 57",
    "lat": 48.7944209,
    "lng": 2.3354726
}, {
    "category": "1",
    "id": 18236,
    "title": "PHARMACIE DU VINCI",
    "address": "21 RUE ERNEST COGNACQ",
    "city": "LEVALLOIS-PERRET",
    "zipcode": "92300",
    "phone": "01 47 57 16 14",
    "lat": 48.8962627,
    "lng": 2.2767424
}, {
    "category": "2",
    "id": 19765,
    "title": "PHARMACIE YAICHE",
    "address": "171 AVENUE CHARLES DE GAULLE",
    "city": "NEUILLY-SUR-SEINE",
    "zipcode": "92200",
    "phone": "01 46 24 01 38",
    "lat": 48.8835305,
    "lng": 2.2629782
}, {
    "category": "1",
    "id": 17743,
    "title": "PHARMACIE DU CARREFOUR WEIDEN",
    "address": "116 BOULEVARD GALLIENI",
    "city": "ISSY-LES-MOULINEAUX",
    "zipcode": "92130",
    "phone": "01 46 42 22 07",
    "lat": 48.8227402,
    "lng": 2.2678751
}, {
    "category": "2",
    "id": 18357,
    "title": "PHARMACIE FLEIFEL",
    "address": "68 RUE JEAN JAURES",
    "city": "VILLEJUIF",
    "zipcode": "94800",
    "phone": "01 46 78 06 33",
    "lat": 48.7915996,
    "lng": 2.3664265
}, {
    "category": "3",
    "id": 15979,
    "title": "PHARMACIE AZOGUI",
    "address": "14 AVENUE DE MADRID",
    "city": "NEUILLY-SUR-SEINE",
    "zipcode": "92200",
    "phone": "01 46 24 03 34",
    "lat": 48.8832741,
    "lng": 2.2598321
}, {
    "category": "2",
    "id": 16186,
    "title": "PHARMACIE BOUSSIRON",
    "address": "3 PLACE DES VICTOIRES",
    "city": "ASNIERES-SUR-SEINE",
    "zipcode": "92600",
    "phone": "01 41 11 85 65",
    "lat": 48.9106875,
    "lng": 2.292083
}, {
    "category": "1",
    "id": 15426,
    "title": "GRANDE PHARMACIE DES CASTORS",
    "address": "230 RUE DE ROMAONVILLE",
    "city": "MONTREUIL",
    "zipcode": "93100",
    "phone": "01 42 87 78 34",
    "lat": 48.8758716,
    "lng": 2.4499374
}, {
    "category": "2",
    "id": 17798,
    "title": "PHARMACIE DU CENTRE",
    "address": "156 RUE DANIELLE CASANOVA",
    "city": "AUBERVILLIERS",
    "zipcode": "93300",
    "phone": "01 43 52 49 86",
    "lat": 48.9151974,
    "lng": 2.4030454
}, {
    "category": "1",
    "id": 19616,
    "title": "PHARMACIE TEMAM",
    "address": "226 BOULEVARD SAINT DENIS",
    "city": "COURBEVOIE",
    "zipcode": "92400",
    "phone": "01 43 33 52 28",
    "lat": 48.902521,
    "lng": 2.2754027
}, {
    "category": "2",
    "id": 17797,
    "title": "PHARMACIE DU CENTRE",
    "address": "8 AVENUE D ARGENTEUIL",
    "city": "ASNIERES-SUR-SEINE",
    "zipcode": "92600",
    "phone": "01 47 93 12 23",
    "lat": 48.9100864,
    "lng": 2.2864049
}, {
    "category": "3",
    "id": 18751,
    "title": "PHARMACIE LAZIMI",
    "address": "82 RUE DE LONGCHAMP",
    "city": "NEUILLY-SUR-SEINE",
    "zipcode": "92200",
    "phone": "01 46 37 43 40",
    "lat": 48.8780925,
    "lng": 2.2517535
}, {
    "category": "2",
    "id": 16986,
    "title": "PHARMACIE DE LA MAIRIE",
    "address": "5 PLACE DE LA LIBERATION",
    "city": "CHATILLON",
    "zipcode": "92320",
    "phone": "01 42 53 09 39",
    "lat": 48.7999042,
    "lng": 2.289802
}, {
    "category": "1",
    "id": 18816,
    "title": "PHARMACIE LEVY",
    "address": "124 BOULEVARD SAINT DENIS",
    "city": "COURBEVOIE",
    "zipcode": "92400",
    "phone": "01 43 33 19 47",
    "lat": 48.8991467,
    "lng": 2.2668345
}, {
    "category": "2",
    "id": 18287,
    "title": "PHARMACIE EL FARAH",
    "address": "CTRE COMMERCIAL QWARTZ BLD GALLIENI",
    "city": "VILLENEUVE-LA-GARENNE",
    "zipcode": "92390",
    "phone": "01 47 94 55 29",
    "lat": 48.9254954,
    "lng": 2.3287101
}, {
    "category": "1",
    "id": 15897,
    "title": "PHARMACIE ABISROR",
    "address": "7 RUE DE L ABBE ROGER DERRY",
    "city": "VITRY-SUR-SEINE",
    "zipcode": "94400",
    "phone": "01 46 80 61 61",
    "lat": 48.7907218,
    "lng": 2.3927853
}, {
    "category": "2",
    "id": 17363,
    "title": "PHARMACIE DELPECH",
    "address": "40 AV MAL DE LATTRE DE TASSIGN",
    "city": "CACHAN",
    "zipcode": "94230",
    "phone": "01 46 65 68 60",
    "lat": 48.7863059,
    "lng": 2.3324261
}, {
    "category": "3",
    "id": 15452,
    "title": "GRANDE PHARMACIE DE BECON",
    "address": "101 RUE ARMAND SILVESTRE",
    "city": "COURBEVOIE",
    "zipcode": "92400",
    "phone": "01 43 33 11 41",
    "lat": 48.9025776,
    "lng": 2.2685136
}, {
    "category": "2",
    "id": 16042,
    "title": "PHARMACIE BEHAR",
    "address": "13 AV DE LA DIVISION LECLERC",
    "city": "CACHAN",
    "zipcode": "94230",
    "phone": "01 46 64 05 46",
    "lat": 48.7854349,
    "lng": 2.3284475
}, {
    "category": "1",
    "id": 19596,
    "title": "PHARMACIE SUN",
    "address": "36 BOULEVARD DE VERDUN",
    "city": "COURBEVOIE",
    "zipcode": "92400",
    "phone": "01 47 68 72 79",
    "lat": 48.8994377,
    "lng": 2.262029
}, {
    "category": "2",
    "id": 18174,
    "title": "PHARMACIE DU SOLEIL",
    "address": "35 AV PAUL VAILLANT COUTURIER",
    "city": "LA COURNEUVE",
    "zipcode": "93120",
    "phone": "01 48 36 27 51",
    "lat": 48.919748,
    "lng": 2.4092104
}, {
    "category": "1",
    "id": 15755,
    "title": "PARAPHARMACIE LECLERC",
    "address": "2 RUE EUGENE HENAFF",
    "city": "VITRY-SUR-SEINE",
    "zipcode": "94400",
    "phone": "01 47 18 19 20",
    "lat": 48.7953981,
    "lng": 2.4155414
}, {
    "category": "2",
    "id": 16988,
    "title": "PHARMACIE DE LA MAIRIE",
    "address": "61 AVENUE DU GENERAL DE GAULLE",
    "city": "MAISONS-ALFORT",
    "zipcode": "94700",
    "phone": "01 43 76 76 10",
    "lat": 48.8021539,
    "lng": 2.4299008
}, {
    "category": "3",
    "id": 15500,
    "title": "GRANDE PHARMACIE JAURES",
    "address": "219 BIS BOULEVARD JEAN JAURES",
    "city": "BOULOGNE-BILLANCOURT",
    "zipcode": "92100",
    "phone": "01 46 21 12 03",
    "lat": 48.8322177,
    "lng": 2.2445258
}, {
    "category": "2",
    "id": 17693,
    "title": "PHARMACIE DRIGHES",
    "address": "126 AVENUE D ARGENTEUIL",
    "city": "ASNIERES-SUR-SEINE",
    "zipcode": "92600",
    "phone": "01 47 93 01 68",
    "lat": 48.9161979,
    "lng": 2.2825633
}, {
    "category": "1",
    "id": 16788,
    "title": "PHARMACIE DE L ILE SAINT GERMA",
    "address": "15 17 BOULEVARD DES ILES",
    "city": "ISSY-LES-MOULINEAUX",
    "zipcode": "92130",
    "phone": "01 46 42 28 05",
    "lat": 48.8229109,
    "lng": 2.2500924
}, {
    "category": "2",
    "id": 16711,
    "title": "PHARMACIE DE L AMICALE",
    "address": "12 RUE ANDRE MORIZET",
    "city": "BOULOGNE-BILLANCOURT",
    "zipcode": "92100",
    "phone": "01 46 95 09 00",
    "lat": 48.8344219,
    "lng": 2.2424991
}, {
    "category": "1",
    "id": 15544,
    "title": "LA PHARMACIE DE ROLAND GARROS",
    "address": "38 AV JEAN BAPTISTE CLEMENT",
    "city": "BOULOGNE-BILLANCOURT",
    "zipcode": "92100",
    "phone": "01 46 05 04 59",
    "lat": 48.8464167,
    "lng": 2.2380852
}, {
    "category": "2",
    "id": 15071,
    "title": "PHARMACIE EISENBETH",
    "address": "68 Boulevard Jean Jaurs",
    "city": "BOULOGNE BILLANCOURT",
    "zipcode": "92100",
    "phone": "01 46 05 03 12",
    "lat": 48.8400069,
    "lng": 2.2395696
}, {
    "category": "3",
    "id": 19039,
    "title": "PHARMACIE NOTRE DAME",
    "address": "45 AV JEAN BAPTISTE CLEMENT",
    "city": "BOULOGNE-BILLANCOURT",
    "zipcode": "92100",
    "phone": "01 46 05 11 78",
    "lat": 48.8458919,
    "lng": 2.2374465
}, {
    "category": "2",
    "id": 16435,
    "title": "PHARMACIE CHARRAS",
    "address": "PLACE CHARRAS CENTRE COMMERCIAL CHARRAS",
    "city": "COURBEVOIE",
    "zipcode": "92400",
    "phone": "01 47 88 11 45",
    "lat": 48.8951286,
    "lng": 2.251736
}, {
    "category": "1",
    "id": 17577,
    "title": "PHARMACIE DES PASSAGES",
    "address": "31 RUE LE CORBUSIER",
    "city": "BOULOGNE-BILLANCOURT",
    "zipcode": "92100",
    "phone": "01 46 05 09 94",
    "lat": 48.8374691,
    "lng": 2.2394651
}, {
    "category": "2",
    "id": 16994,
    "title": "PHARMACIE DE LA MAIRIE",
    "address": "134 AVENUE GABRIEL PERI",
    "city": "GENNEVILLIERS",
    "zipcode": "92230",
    "phone": "01 47 98 80 43",
    "lat": 48.9242873,
    "lng": 2.2947138
}, {
    "category": "1",
    "id": 19195,
    "title": "PHARMACIE PONG",
    "address": "7 AVENUE ARISTIDE BRIAND",
    "city": "L HAY-LES-ROSES",
    "zipcode": "94240",
    "phone": "01 46 64 47 09",
    "lat": 48.7796886,
    "lng": 2.3350581
}, {
    "category": "2",
    "id": 19615,
    "title": "PHARMACIE TELLE",
    "address": "40 RUE BOUCICAUT",
    "city": "FONTENAY-AUX-ROSES",
    "zipcode": "92260",
    "phone": "01 46 61 10 09",
    "lat": 48.7909555,
    "lng": 2.2885019
}, {
    "category": "3",
    "id": 16405,
    "title": "PHARMACIE CENTRE CIAL AVENIR",
    "address": "60 RUE SAINT STENAY CENTRE COMMERCIAL AVENIR",
    "city": "DRANCY",
    "zipcode": "93700",
    "phone": "01 48 36 02 30",
    "lat": 48.9204872,
    "lng": 2.4211189
}, {
    "category": "2",
    "id": 18026,
    "title": "PHARMACIE DU METRO",
    "address": "50 AVENUE DU GENERAL LECLERC",
    "city": "BOULOGNE-BILLANCOURT",
    "zipcode": "92100",
    "phone": "01 46 05 32 22",
    "lat": 48.8324534,
    "lng": 2.2389587
}, {
    "category": "1",
    "id": 18571,
    "title": "PHARMACIE HOTTIN",
    "address": "8 RUE PAUL VAILLANT COUTURIER",
    "city": "CLAMART",
    "zipcode": "92140",
    "phone": "01 46 42 05 85",
    "lat": 48.8020222,
    "lng": 2.2656292
}, {
    "category": "2",
    "id": 16396,
    "title": "PHARMACIE CENTRALE LEBEAU",
    "address": "221 BOULEVARD GALLIENI",
    "city": "VILLENEUVE-LA-GARENNE",
    "zipcode": "92390",
    "phone": "01 47 98 59 32",
    "lat": 48.9347637,
    "lng": 2.3327328
}, {
    "category": "1",
    "id": 18930,
    "title": "PHARMACIE MERGUI.",
    "address": "126 ROUTE DE LA REINE",
    "city": "BOULOGNE-BILLANCOURT",
    "zipcode": "92100",
    "phone": "01 46 04 00 62",
    "lat": 48.8404177,
    "lng": 2.2342496
}, {
    "category": "2",
    "id": 15549,
    "title": "LA PHARMACIE DU MARCHE",
    "address": "18 RUE HENRI THIRARD",
    "city": "L HAY-LES-ROSES",
    "zipcode": "94240",
    "phone": "01 46 64 49 39",
    "lat": 48.7773621,
    "lng": 2.3445927
}, {
    "category": "3",
    "id": 18644,
    "title": "PHARMACIE KANN",
    "address": "14 RUE MECHIN",
    "city": "L ILE-SAINT-DENIS",
    "zipcode": "93450",
    "phone": "01 48 20 05 41",
    "lat": 48.9357645,
    "lng": 2.3396051
}, {
    "category": "2",
    "id": 18345,
    "title": "PHARMACIE FERRARI",
    "address": "87 RUE JEAN JAURES",
    "city": "NOISY-LE-SEC",
    "zipcode": "93130",
    "phone": "01 48 44 66 82",
    "lat": 48.8948574,
    "lng": 2.4588244
}, {
    "category": "1",
    "id": 15447,
    "title": "GRANDE PHARMACIE CENTRALE",
    "address": "36 RUE DE LA REPUBLIQUE",
    "city": "SAINT-DENIS",
    "zipcode": "93200",
    "phone": "01 48 20 15 92",
    "lat": 48.9366235,
    "lng": 2.3549685
}, {
    "category": "2",
    "id": 16445,
    "title": "PHARMACIE CHATAP",
    "address": "24 COURS DES JUILLOTTES",
    "city": "MAISONS-ALFORT",
    "zipcode": "94700",
    "phone": "01 43 76 22 83",
    "lat": 48.8034223,
    "lng": 2.4436481
}, {
    "category": "1",
    "id": 18200,
    "title": "PHARMACIE DU TRAPEZE",
    "address": "42 AV PIERRE LEFAUCHEUX",
    "city": "BOULOGNE-BILLANCOURT",
    "zipcode": "92100",
    "phone": "01 46 21 13 31",
    "lat": 48.8251493,
    "lng": 2.2398823
}, {
    "category": "2",
    "id": 16995,
    "title": "PHARMACIE DE LA MAIRIE",
    "address": "38 AVENUE DE VERDUN",
    "city": "VILLENEUVE-LA-GARENNE",
    "zipcode": "92390",
    "phone": "01 47 98 15 18",
    "lat": 48.9364292,
    "lng": 2.3314178
}, {
    "category": "3",
    "id": 15429,
    "title": "GRANDE PHARMACIE DU MARCHE",
    "address": "123 RUE GABRIEL PERI",
    "city": "SAINT-DENIS",
    "zipcode": "93200",
    "phone": "01 48 20 06 90",
    "lat": 48.9381962,
    "lng": 2.355977
}, {
    "category": "2",
    "id": 18975,
    "title": "PHARMACIE MONTGOLFIER",
    "address": "10 PLACE MONTGOLFIER",
    "city": "SAINT-MAURICE",
    "zipcode": "94410",
    "phone": "01 48 86 51 60",
    "lat": 48.8146378,
    "lng": 2.4593344
}, {
    "category": "1",
    "id": 15119,
    "title": "AUCHAN ESPACE SANTE BEAUTE MAG 31",
    "address": "AUCHAN LA DEFENSE SECTEUR PGC CENTE CIAL LES 4 TEMPS ",
    "city": "PARIS LA DEFENSE",
    "zipcode": "92092",
    "phone": "01 41 02 30 30",
    "lat": 48.8907576,
    "lng": 2.2379609
}, {
    "category": "2",
    "id": 19784,
    "title": "PHARMAVANCE SURESNES",
    "address": "28 RUE DES BOURETS",
    "city": "SURESNES",
    "zipcode": "92150",
    "phone": "01 45 06 10 33",
    "lat": 48.8691862,
    "lng": 2.2281679
}, {
    "category": "1",
    "id": 15155,
    "title": "PHARMACIE RER",
    "address": "Centre Ccommercial du RER",
    "city": "PUTEAUX",
    "zipcode": "92800",
    "phone": "01 55 23 03 33",
    "lat": 48.8920727,
    "lng": 2.2381109
}, {
    "category": "2",
    "id": 15852,
    "title": "PHARMA CNIT",
    "address": "2 PLACE DE LA DEFENCE IMMEUBLE CNIT",
    "city": "PUTEAUX",
    "zipcode": "92800",
    "phone": "01 46 98 02 85",
    "lat": 48.8929569,
    "lng": 2.2384426
}, {
    "category": "3",
    "id": 17390,
    "title": "PHARMACIE DES 4 TEMPS",
    "address": "2 PARVIS DE LA DEFENSE CTRE COM LES 4 TEMPS QUAI B56",
    "city": "PUTEAUX",
    "zipcode": "92800",
    "phone": "01 47 73 56 92",
    "lat": 48.8902324,
    "lng": 2.2361674
}, {
    "category": "2",
    "id": 18619,
    "title": "PHARMACIE JEGOU",
    "address": "2 RUE DU MONT VALERIEN",
    "city": "SURESNES",
    "zipcode": "92150",
    "phone": "01 45 06 76 49",
    "lat": 48.8703265,
    "lng": 2.2268213
}, {
    "category": "1",
    "id": 18527,
    "title": "PHARMACIE HANNA SITRUK",
    "address": "36 BLD DE LA MISSION MARCHAND",
    "city": "COURBEVOIE",
    "zipcode": "92400",
    "phone": "01 47 88 94 33",
    "lat": 48.8977366,
    "lng": 2.2411548
}, {
    "category": "2",
    "id": 16705,
    "title": "PHARMACIE DE L AIGLE",
    "address": "2 RUE DE L AIGLE",
    "city": "LA GARENNE-COLOMBES",
    "zipcode": "92250",
    "phone": "01 42 42 15 25",
    "lat": 48.9108924,
    "lng": 2.2539853
}, {
    "category": "1",
    "id": 18060,
    "title": "PHARMACIE DU PARC",
    "address": "52 RUE JEAN JACQUES ROUSSEAU",
    "city": "SURESNES",
    "zipcode": "92150",
    "phone": "01 45 06 10 46",
    "lat": 48.8658089,
    "lng": 2.2237844
}, {
    "category": "2",
    "id": 17681,
    "title": "PHARMACIE DOMUS",
    "address": "15 ALLEE GABRIEL ZIRNHELT FACE 78 AV DU GENERAL DE GAULLE",
    "city": "ROSNY-SOUS-BOIS",
    "zipcode": "93110",
    "phone": "01 48 94 71 21",
    "lat": 48.8780833,
    "lng": 2.478907
}, {
    "category": "3",
    "id": 18800,
    "title": "PHARMACIE LEONARD DE VINCI",
    "address": "23/27 AV LEONARD DE VINCI",
    "city": "COURBEVOIE",
    "zipcode": "92400",
    "phone": "01 46 67 11 11",
    "lat": 48.8968003,
    "lng": 2.2357917
}, {
    "category": "2",
    "id": 15280,
    "title": "CARREFOUR FORME ET BEAUTE",
    "address": "AVENUE DU GENERAL DE GAULLE C CIAL ROSNY2",
    "city": "ROSNY-SOUS-BOIS",
    "zipcode": "93110",
    "phone": "01 49 35 59 79",
    "lat": 48.883573,
    "lng": 2.477632
}, {
    "category": "1",
    "id": 17900,
    "title": "PHARMACIE DU FLORE",
    "address": "3 AVENUE DE LA REDOUTE CTRE CIAL LES QUATRES ROUTES",
    "city": "ASNIERES-SUR-SEINE",
    "zipcode": "92600",
    "phone": "01 47 98 32 86",
    "lat": 48.9273838,
    "lng": 2.2740078
}, {
    "category": "2",
    "id": 15908,
    "title": "PHARMACIE AL OSTENC",
    "address": "45 RUE HOUDAN",
    "city": "SCEAUX",
    "zipcode": "92330",
    "phone": "01 46 61 00 91",
    "lat": 48.7777245,
    "lng": 2.2930175
}, {
    "category": "1",
    "id": 16057,
    "title": "PHARMACIE BENICHOU",
    "address": "26 RUE GAL GALLIENI",
    "city": "ROSNY-SOUS-BOIS",
    "zipcode": "93110",
    "phone": "01 45 28 00 19",
    "lat": 48.8731967,
    "lng": 2.4839544
}, {
    "category": "2",
    "id": 17933,
    "title": "PHARMACIE DU HAUT DE CLAMART",
    "address": "38 RUE DE LA PORTE DE TRIVAUX",
    "city": "CLAMART",
    "zipcode": "92140",
    "phone": "01 46 32 15 70",
    "lat": 48.7912939,
    "lng": 2.260334
}, {
    "category": "3",
    "id": 16398,
    "title": "PHARMACIE CENTRALE NOGENT",
    "address": "102 GRANDE RUE CHARLES DE GAULLE",
    "city": "NOGENT-SUR-MARNE",
    "zipcode": "94130",
    "phone": "01 48 73 02 94",
    "lat": 48.836901,
    "lng": 2.484497
}, {
    "category": "2",
    "id": 18102,
    "title": "PHARMACIE DU PONT DE JOINVILLE",
    "address": "23 AV DU GENERAL GALLIENI",
    "city": "JOINVILLE-LE-PONT",
    "zipcode": "94340",
    "phone": "01 48 83 20 80",
    "lat": 48.8200815,
    "lng": 2.4772826
}, {
    "category": "1",
    "id": 17387,
    "title": "PHARMACIE DES 4 ROUTES",
    "address": "129 AVENUE HENRI BARBUSSE",
    "city": "DRANCY",
    "zipcode": "93700",
    "phone": "01 48 30 22 65",
    "lat": 48.9197625,
    "lng": 2.4504853
}, {
    "category": "2",
    "id": 16078,
    "title": "PHARMACIE BERTRAND",
    "address": "52 BOULEVARD DES BOUVETS",
    "city": "NANTERRE",
    "zipcode": "92000",
    "phone": "01 47 21 56 43",
    "lat": 48.8955652,
    "lng": 2.2273459
}, {
    "category": "1",
    "id": 17526,
    "title": "PHARMACIE DES HAUTS DE ST CLOUD",
    "address": "86 BD DE LA REPUBLIQUE",
    "city": "SAINT-CLOUD",
    "zipcode": "92210",
    "phone": "01 46 02 40 95",
    "lat": 48.8468657,
    "lng": 2.2143932
}, {
    "category": "2",
    "id": 18553,
    "title": "PHARMACIE HERVET CAUCHON",
    "address": "38 RUE DE LA REPUBLIQUE",
    "city": "MEUDON",
    "zipcode": "92190",
    "phone": "01 45 34 12 45",
    "lat": 48.8070798,
    "lng": 2.2355405
}, {
    "category": "3",
    "id": 18408,
    "title": "PHARMACIE GALLIENI",
    "address": "54 AVENUE DU GENERAL GALLIENI",
    "city": "JOINVILLE-LE-PONT",
    "zipcode": "94340",
    "phone": "01 48 83 20 01",
    "lat": 48.8198416,
    "lng": 2.4804862
}, {
    "category": "2",
    "id": 17000,
    "title": "PHARMACIE DE LA MAIRIE COHEN",
    "address": "53 RUE DU BOURNARD",
    "city": "COLOMBES",
    "zipcode": "92700",
    "phone": "01 42 42 09 09",
    "lat": 48.9231542,
    "lng": 2.2551355
}, {
    "category": "1",
    "id": 18190,
    "title": "PHARMACIE DU THEATRE",
    "address": "108 BD DE CRETEIL",
    "city": "SAINT-MAUR-DES-FOSSES",
    "zipcode": "94100",
    "phone": "01 48 83 02 13",
    "lat": 48.8050591,
    "lng": 2.4692703
}, {
    "category": "2",
    "id": 17997,
    "title": "PHARMACIE DU MARCHE",
    "address": "2 AVENUE DESGENETTES",
    "city": "SAINT-MAUR-DES-FOSSES",
    "zipcode": "94100",
    "phone": "01 48 83 29 29",
    "lat": 48.8070822,
    "lng": 2.4714464
}, {
    "category": "1",
    "id": 19271,
    "title": "PHARMACIE PYRAMIDE",
    "address": "ROUTE DE SAINT LEU-ZAC NOBEL C COMMERCIAL BIENVENU",
    "city": "VILLETANEUSE",
    "zipcode": "93430",
    "phone": "01 48 27 82 10",
    "lat": 48.9496632,
    "lng": 2.3443569
}, {
    "category": "2",
    "id": 15759,
    "title": "PARAPHARMACIE LECLERC",
    "address": "21 RUE JULES MICHELET",
    "city": "COLOMBES",
    "zipcode": "92700",
    "phone": "01 46 49 44 00",
    "lat": 48.9322396,
    "lng": 2.2684304
}, {
    "category": "3",
    "id": 19307,
    "title": "PHARMACIE REVEILLEAU",
    "address": "10 RUE DES REMISES",
    "city": "SAINT-MAUR-DES-FOSSES",
    "zipcode": "94100",
    "phone": "01 42 83 80 41",
    "lat": 48.8067659,
    "lng": 2.4734649
}, {
    "category": "2",
    "id": 16985,
    "title": "PHARMACIE DE LA MAIRIE",
    "address": "7 PLACE DU MARCHE",
    "city": "THIAIS",
    "zipcode": "94320",
    "phone": "01 48 53 83 02",
    "lat": 48.764566,
    "lng": 2.391209
}, {
    "category": "1",
    "id": 16867,
    "title": "PHARMACIE DE LA CROIX DE BERNY",
    "address": "123 AVENUE ARISTIDE BRIAND",
    "city": "ANTONY",
    "zipcode": "92160",
    "phone": "01 46 66 51 68",
    "lat": 48.7627186,
    "lng": 2.3081336
}, {
    "category": "2",
    "id": 15594,
    "title": "PARAPHARMACIE   LECLERC",
    "address": "130 BVD CHARLES DE GAULLE ZAC DES 4 CHEMINS",
    "city": "COLOMBES",
    "zipcode": "92700",
    "phone": "01 41 30 00 76",
    "lat": 48.914203,
    "lng": 2.2303963
}, {
    "category": "1",
    "id": 16839,
    "title": "PHARMACIE DE LA CITE",
    "address": "9 AVENUE CHARLES DE GAULLE",
    "city": "LE PLESSIS-ROBINSON",
    "zipcode": "92350",
    "phone": "01 46 30 13 06",
    "lat": 48.7783415,
    "lng": 2.2597727
}, {
    "category": "2",
    "id": 19475,
    "title": "PHARMACIE SAINT ROMAIN",
    "address": "2BIS AVENUE DE L EUROPE",
    "city": "SEVRES",
    "zipcode": "92310",
    "phone": "01 46 26 03 73",
    "lat": 48.8233399,
    "lng": 2.2094836
}, {
    "category": "3",
    "id": 18267,
    "title": "PHARMACIE DUMONT",
    "address": "5 AV MARECHAL DE TASSIGNY",
    "city": "EPINAY-SUR-SEINE",
    "zipcode": "93800",
    "phone": "09 72 44 68 14",
    "lat": 48.9535286,
    "lng": 2.3137489
}, {
    "category": "2",
    "id": 18202,
    "title": "PHARMACIE DU TREMBLAY",
    "address": "125 AVENUE DU GAL DE GAULLE",
    "city": "CHAMPIGNY-SUR-MARNE",
    "zipcode": "94500",
    "phone": "01 47 06 54 48",
    "lat": 48.8240206,
    "lng": 2.4971597
}, {
    "category": "1",
    "id": 14881,
    "title": "CARREFOUR FORME ET BEAUTE",
    "address": "CENTRE COMMERCIAL BELLE EPINE ",
    "city": "THIAIS",
    "zipcode": "94320",
    "phone": "01 41 80 42 79",
    "lat": 48.7566294,
    "lng": 2.3719927
}, {
    "category": "2",
    "id": 15595,
    "title": "PARAPHARMACIE A PETIT PRIX",
    "address": "103 AVENUE DE L EUROPE TOUR EUROPA CCIAL BELLE EPINE",
    "city": "THIAIS",
    "zipcode": "94320",
    "phone": "01 49 78 75 75",
    "lat": 48.7555674,
    "lng": 2.3700854
}, {
    "category": "1",
    "id": 16390,
    "title": "PHARMACIE CENTRALE DU MARCHE",
    "address": "106 AVENUE DU GENERAL DE GAULLE",
    "city": "LE PERREUX-SUR-MARNE",
    "zipcode": "94170",
    "phone": "01 43 24 20 93",
    "lat": 48.8418167,
    "lng": 2.5054228
}, {
    "category": "2",
    "id": 16989,
    "title": "PHARMACIE DE LA MAIRIE",
    "address": "20 PLACE CHARLES DE GAULLE",
    "city": "SAINT-MAUR-DES-FOSSES",
    "zipcode": "94100",
    "phone": "01 48 83 00 43",
    "lat": 48.8045155,
    "lng": 2.4855637
}, {
    "category": "3",
    "id": 15253,
    "title": "CARREFOUR FORME ET BEAUTE",
    "address": "AVENUE  DU GEN DE GAULLE  CC CRETEIL SOLEIL",
    "city": "CRETEIL",
    "zipcode": "94000",
    "phone": "01 45 13 48 19",
    "lat": 48.7796944,
    "lng": 2.4562168
}, {
    "category": "2",
    "id": 14989,
    "title": "PHARMACIE CAP SANTE I",
    "address": "Crteil Soleil, Centre Commercial Rgional",
    "city": "CRETEIL",
    "zipcode": "94000",
    "phone": "01 49 80 03 14",
    "lat": 48.7797306,
    "lng": 2.4574149
}, {
    "category": "1",
    "id": 15760,
    "title": "PARAPHARMACIE LECLERC",
    "address": "192 AVNUE CHARLES FLOQUET",
    "city": "LE BLANC-MESNIL",
    "zipcode": "93150",
    "phone": "01 49 39 57 30",
    "lat": 48.9411735,
    "lng": 2.4434932
}, {
    "category": "2",
    "id": 15485,
    "title": "GRANDE PHARMACIE DU CENTRE",
    "address": "48 RUE AV DE FOUILLEUSE",
    "city": "RUEIL-MALMAISON",
    "zipcode": "92500",
    "phone": "01 47 51 55 95",
    "lat": 48.8625688,
    "lng": 2.1932962
}, {
    "category": "1",
    "id": 17278,
    "title": "PHARMACIE DE PLAISANCE",
    "address": "32 CHEMIN DE MEAUX",
    "city": "NEUILLY-PLAISANCE",
    "zipcode": "93360",
    "phone": "01 43 00 49 59",
    "lat": 48.8623406,
    "lng": 2.5121059
}, {
    "category": "2",
    "id": 17409,
    "title": "PHARMACIE DES ANTES",
    "address": "16/18 PLACE LOUIS XIII",
    "city": "RUNGIS",
    "zipcode": "94150",
    "phone": "01 46 86 19 00",
    "lat": 48.7510263,
    "lng": 2.3453373
}, {
    "category": "3",
    "id": 17799,
    "title": "PHARMACIE DU CENTRE",
    "address": "13 AV HENRI BARBUSSE",
    "city": "LE BLANC-MESNIL",
    "zipcode": "93150",
    "phone": "01 48 67 32 30",
    "lat": 48.9367678,
    "lng": 2.4578159
}, {
    "category": "2",
    "id": 17617,
    "title": "PHARMACIE DES SABLONS",
    "address": "3 RUE CLAUDE DEBUSSY CTRE COM INTERMARCHE",
    "city": "MONTMAGNY",
    "zipcode": "95360",
    "phone": "01 39 83 99 98",
    "lat": 48.962694,
    "lng": 2.33713
}, {
    "category": "1",
    "id": 16556,
    "title": "PHARMACIE D ADAMVILLE HUARD",
    "address": "4 BIS RUE D INKERMANN",
    "city": "SAINT-MAUR-DES-FOSSES",
    "zipcode": "94100",
    "phone": "01 48 83 01 13",
    "lat": 48.7967355,
    "lng": 2.486328
}, {
    "category": "2",
    "id": 17703,
    "title": "PHARMACIE DU BAOBAB",
    "address": "3 11 BOULEVARD DU MARECHAL FOCH C COMMERCIAL BAOBAB",
    "city": "NEUILLY-SUR-MARNE",
    "zipcode": "93330",
    "phone": "01 43 08 93 12",
    "lat": 48.8539722,
    "lng": 2.5170199
}, {
    "category": "1",
    "id": 16403,
    "title": "PHARMACIE CENTRALE SOL TOUTON",
    "address": "31 RUE MAURICE THOREZ",
    "city": "NANTERRE",
    "zipcode": "92000",
    "phone": "01 47 21 11 97",
    "lat": 48.8919441,
    "lng": 2.1954777
}, {
    "category": "2",
    "id": 16521,
    "title": "PHARMACIE COTE SEINE",
    "address": "C. C COTE SEINE LOTS 16 62 63 50 AVENUE MARECHAL FOCH",
    "city": "ARGENTEUIL",
    "zipcode": "95100",
    "phone": "01 39 61 02 06",
    "lat": 48.944161,
    "lng": 2.2533559
}, {
    "category": "3",
    "id": 16926,
    "title": "PHARMACIE DE LA GARE",
    "address": "82 BIS RUE MAURICE THOREZ",
    "city": "NANTERRE",
    "zipcode": "92000",
    "phone": "01 47 21 12 23",
    "lat": 48.8949918,
    "lng": 2.1966339
}, {
    "category": "2",
    "id": 19077,
    "title": "PHARMACIE OUTREBON",
    "address": "32 AVENUE OUTREBON",
    "city": "VILLEMOMBLE",
    "zipcode": "93250",
    "phone": "01 48 54 05 32",
    "lat": 48.8885067,
    "lng": 2.5112258
}, {
    "category": "1",
    "id": 15842,
    "title": "PHARMACIE DE PONT DE BRY",
    "address": "244 AV PIERRE BROSSOLETTE",
    "city": "LE PERREUX-SUR-MARNE",
    "zipcode": "94170",
    "phone": "01 43 24 05 55",
    "lat": 48.8339119,
    "lng": 2.5152918
}, {
    "category": "2",
    "id": 16367,
    "title": "PHARMACIE CENTRALE",
    "address": "16 PLACE DU GENERAL DE GAULLE",
    "city": "LE RAINCY",
    "zipcode": "93340",
    "phone": "01 43 81 07 79",
    "lat": 48.8906325,
    "lng": 2.5124508
}, {
    "category": "1",
    "id": 19827,
    "title": "PHARMACIE DE LA SOURCE",
    "address": "39 RUE DE LA FALKRIK",
    "city": "CRETEIL",
    "zipcode": "94000",
    "phone": "01 43 99 44 72",
    "lat": 48.7714849,
    "lng": 2.4606869
}, {
    "category": "2",
    "id": 17631,
    "title": "PHARMACIE DES TILLEULS",
    "address": "20 RUE MAURICE AUDIN",
    "city": "LE BLANC-MESNIL",
    "zipcode": "93150",
    "phone": "01 48 67 07 81",
    "lat": 48.9473846,
    "lng": 2.4505954
}, {
    "category": "3",
    "id": 18500,
    "title": "PHARMACIE GUETTA",
    "address": "1 RUE DE LA REPUBLIQUE",
    "city": "ARGENTEUIL",
    "zipcode": "95100",
    "phone": "01 39 80 67 52",
    "lat": 48.9499861,
    "lng": 2.2581315
}, {
    "category": "2",
    "id": 17863,
    "title": "PHARMACIE DU COLOMBIER",
    "address": "4 - 6 RUE DE NOISY LE GRAND",
    "city": "BRY-SUR-MARNE",
    "zipcode": "94360",
    "phone": "01 48 81 42 00",
    "lat": 48.838906,
    "lng": 2.5226284
}, {
    "category": "1",
    "id": 19831,
    "title": "PHARMACIE DE L'EUROPE",
    "address": "16 -18 AVENUE MORANE SAULNIER",
    "city": "VELIZY-VILLACOUBLAY",
    "zipcode": "78140",
    "phone": "09 80 64 14 19",
    "lat": 48.784502,
    "lng": 2.218101
}, {
    "category": "2",
    "id": 16646,
    "title": "PHARMACIE DE CHAMPIGNOL",
    "address": "05 AVENUE DU 11 NOVEMBRE",
    "city": "LA VARENNE ST HILAIRE",
    "zipcode": "94210",
    "phone": "01 42 83 93 95",
    "lat": 48.8075973,
    "lng": 2.5098527
}, {
    "category": "1",
    "id": 17850,
    "title": "PHARMACIE DU CHEMIN DE L ILE",
    "address": "BD DU GENERAL LECLERC",
    "city": "NANTERRE",
    "zipcode": "92000",
    "phone": "01 47 21 41 75",
    "lat": 48.8997175,
    "lng": 2.1899727
}, {
    "category": "2",
    "id": 15207,
    "title": "AUCHAN ESPACE SANTE BEAUTE",
    "address": "AUCHAN VELIZY SECTEUR PGC 2 AVENUE DE L EUROPE CENTRE COMMERCIAL AUCHAN",
    "city": "VELIZY-VILLACOUBLAY",
    "zipcode": "78140",
    "phone": "01 34 58 42 19",
    "lat": 48.781329,
    "lng": 2.2198866
}, {
    "category": "3",
    "id": 15142,
    "title": "PHARMACIE ORLY SUD",
    "address": "AEROGARE SUD BP A 190",
    "city": "ORLY AEROGARE",
    "zipcode": "94542",
    "phone": "01 49 75 74 70",
    "lat": 48.745193,
    "lng": 2.401373
}, {
    "category": "2",
    "id": 18007,
    "title": "PHARMACIE DU MARCHE",
    "address": "67 AVENUE MATHIEU CHAZOTTE",
    "city": "DEUIL-LA-BARRE",
    "zipcode": "95170",
    "phone": "01 39 83 34 34",
    "lat": 48.9709357,
    "lng": 2.3210156
}, {
    "category": "1",
    "id": 16991,
    "title": "PHARMACIE DE LA MAIRIE",
    "address": "3 ROND POINT THIERS",
    "city": "LE RAINCY",
    "zipcode": "93340",
    "phone": "01 43 81 00 50",
    "lat": 48.8993256,
    "lng": 2.5169059
}, {
    "category": "2",
    "id": 17813,
    "title": "PHARMACIE DU CENTRE COLMAR",
    "address": "62 RUE D ESTIENNE D ORVES",
    "city": "RUEIL-MALMAISON",
    "zipcode": "92500",
    "phone": "01 47 51 03 22",
    "lat": 48.8863858,
    "lng": 2.1803364
}, {
    "category": "1",
    "id": 16363,
    "title": "PHARMACIE CENTRALE",
    "address": "20 RUE LOUIS TALAMONI",
    "city": "CHAMPIGNY-SUR-MARNE",
    "zipcode": "94500",
    "phone": "01 47 06 00 65",
    "lat": 48.811443,
    "lng": 2.5184735
}, {
    "category": "2",
    "id": 18006,
    "title": "PHARMACIE DU MARCHE",
    "address": "14BIS ROUTE DE BONDY",
    "city": "AULNAY-SOUS-BOIS",
    "zipcode": "93600",
    "phone": "01 48 66 63 23",
    "lat": 48.9308692,
    "lng": 2.4933416
}, {
    "category": "3",
    "id": 15753,
    "title": "PARAPHARMACIE LECLERC",
    "address": "8 PLACE DU FER A CHEVAL",
    "city": "ORLY",
    "zipcode": "94310",
    "phone": "01 48 92 18 18",
    "lat": 48.7432578,
    "lng": 2.4073646
}, {
    "category": "2",
    "id": 19308,
    "title": "PHARMACIE REVEL",
    "address": "115B AVENUE DU GENERAL DE GAUL",
    "city": "NEUILLY-SUR-MARNE",
    "zipcode": "93330",
    "phone": "01 43 08 22 56",
    "lat": 48.8587494,
    "lng": 2.5341223
}, {
    "category": "1",
    "id": 16104,
    "title": "PHARMACIE BISMUTH",
    "address": "69 AVENUE DE BONNEUIL",
    "city": "LA VARENNE ST HILAIRE",
    "zipcode": "94210",
    "phone": "01 48 83 11 05",
    "lat": 48.7888375,
    "lng": 2.5024018
}, {
    "category": "2",
    "id": 16123,
    "title": "PHARMACIE BLONDEL",
    "address": "4 ROND POINT DE MONTFERMEIL",
    "city": "LE RAINCY",
    "zipcode": "93340",
    "phone": "01 43 81 01 37",
    "lat": 48.8956376,
    "lng": 2.5271706
}, {
    "category": "1",
    "id": 17093,
    "title": "PHARMACIE DE LA POSTE",
    "address": "4 RUE HENRI BARBUSSE",
    "city": "GAGNY",
    "zipcode": "93220",
    "phone": "01 43 81 09 96",
    "lat": 48.8846666,
    "lng": 2.5332974
}, {
    "category": "2",
    "id": 18419,
    "title": "PHARMACIE GARE RER",
    "address": "106 AV ALBERT 1ER PATIOT DE RUEIL CCIAL ALBERT 1",
    "city": "RUEIL-MALMAISON",
    "zipcode": "92500",
    "phone": "01 47 49 27 36",
    "lat": 48.8865366,
    "lng": 2.170863
}, {
    "category": "3",
    "id": 19607,
    "title": "PHARMACIE TAN",
    "address": "156 RUE ALEXANDRE FOURNY CTRE COM LECLERC",
    "city": "CHAMPIGNY SUR MARNE",
    "zipcode": "94500",
    "phone": "01 47 06 34 96",
    "lat": 48.8194355,
    "lng": 2.530858
}, {
    "category": "2",
    "id": 19424,
    "title": "PHARMACIE SAINT HILAIRE",
    "address": "18 RUE SAINT HILAIRE",
    "city": "LA VARENNE ST HILAIRE",
    "zipcode": "94210",
    "phone": "01 48 83 12 38",
    "lat": 48.7923112,
    "lng": 2.5136743
}, {
    "category": "1",
    "id": 15982,
    "title": "PHARMACIE BAC 90",
    "address": "90 AVENUE DU BAC",
    "city": "LA VARENNE ST HILAIRE",
    "zipcode": "94210",
    "phone": "01 48 83 10 34",
    "lat": 48.7931309,
    "lng": 2.5148032
}, {
    "category": "2",
    "id": 18733,
    "title": "PHARMACIE LASJUNIES",
    "address": "RUE DE LA HORIONNE CENTRE COMMERCIAL CARREFOUR",
    "city": "SANNOIS",
    "zipcode": "95110",
    "phone": "01 30 25 73 04",
    "lat": 48.964589,
    "lng": 2.255526
}, {
    "category": "1",
    "id": 17214,
    "title": "PHARMACIE DE L'EUROPE",
    "address": "4 COURS FERDINAND DE LESSEPS",
    "city": "RUEIL-MALMAISON",
    "zipcode": "92500",
    "phone": "01 47 08 04 30",
    "lat": 48.8889895,
    "lng": 2.1673668
}, {
    "category": "2",
    "id": 17452,
    "title": "PHARMACIE DES CATELAINES",
    "address": "11 AVENUE MARECHAL JUIN",
    "city": "CARRIERES-SUR-SEINE",
    "zipcode": "78420",
    "phone": "01 39 14 73 48",
    "lat": 48.9118736,
    "lng": 2.179198
}, {
    "category": "3",
    "id": 18296,
    "title": "PHARMACIE ENNACIRI",
    "address": "BD DE LA MUETTE CCIAL CORA",
    "city": "GARGES-LES-GONESSE",
    "zipcode": "95140",
    "phone": "01 39 86 23 24",
    "lat": 48.9757315,
    "lng": 2.4181617
}, {
    "category": "2",
    "id": 15856,
    "title": "PHARMA FOLCHER ZINETTI ASSO",
    "address": "12 ALLEE DE LA FOSSE MAUSSOIN CENTRE COMMERCIAL CLICHY 2",
    "city": "CLICHY-SOUS-BOIS",
    "zipcode": "93390",
    "phone": "01 43 81 01 31",
    "lat": 48.9047217,
    "lng": 2.5322425
}, {
    "category": "1",
    "id": 17419,
    "title": "PHARMACIE DES ARCADES",
    "address": "C-CIAL LES ARCADES-NIVEAU 2",
    "city": "NOISY-LE-GRAND",
    "zipcode": "93160",
    "phone": "01 43 05 13 83",
    "lat": 48.840167,
    "lng": 2.54605
}, {
    "category": "2",
    "id": 15144,
    "title": "PHARMACIE PARINOR",
    "address": "O'Parinor, Centre Commercial O'Parinor, Le Haut de Galy",
    "city": "AULNAY-SOUS-BOIS",
    "zipcode": "93600",
    "phone": "01 48 67 47 28",
    "lat": 48.9566504,
    "lng": 2.4752283
}, {
    "category": "1",
    "id": 18531,
    "title": "PHARMACIE HARMAN BOUNETTA",
    "address": "23 BOULEVARD CHARLES DE GAULLE",
    "city": "SANNOIS",
    "zipcode": "95110",
    "phone": "01 39 81 20 43",
    "lat": 48.9703922,
    "lng": 2.2609186
}, {
    "category": "2",
    "id": 15905,
    "title": "PHARMACIE AICHE",
    "address": "69 RUE DU GENERAL DE GAULLE",
    "city": "VILLENEUVE-LE-ROI",
    "zipcode": "94290",
    "phone": "01 45 97 41 22",
    "lat": 48.7349163,
    "lng": 2.4200383
}, {
    "category": "3",
    "id": 17728,
    "title": "PHARMACIE DU BUISSON",
    "address": "103 RUE D ESTIENNE D ORVES",
    "city": "VERRIERES-LE-BUISSON",
    "zipcode": "91370",
    "phone": "01 69 53 01 10",
    "lat": 48.7410818,
    "lng": 2.2599555
}, {
    "category": "2",
    "id": 18860,
    "title": "PHARMACIE MADAR",
    "address": "7 PLACE GENERAL LECLERC",
    "city": "SANNOIS",
    "zipcode": "95110",
    "phone": "01 39 81 34 16",
    "lat": 48.9717832,
    "lng": 2.2569817
}, {
    "category": "1",
    "id": 18786,
    "title": "PHARMACIE LEIBA",
    "address": "93 BOULEVARD DE LA REPUBLIQUE",
    "city": "VAUCRESSON",
    "zipcode": "92420",
    "phone": "01 47 41 11 20",
    "lat": 48.8370424,
    "lng": 2.1543285
}, {
    "category": "2",
    "id": 17561,
    "title": "PHARMACIE DES MORDACS",
    "address": "6 PLACE GEORGES MARCHAIS",
    "city": "CHAMPIGNY-SUR-MARNE",
    "zipcode": "94500",
    "phone": "01 48 80 58 10",
    "lat": 48.808781,
    "lng": 2.5389174
}, {
    "category": "1",
    "id": 18090,
    "title": "PHARMACIE DU PLATEAU",
    "address": "5 PLACE DU DOCTEUR BERTHET",
    "city": "LA CELLE-SAINT-CLOUD",
    "zipcode": "78170",
    "phone": "01 39 69 72 61",
    "lat": 48.8488271,
    "lng": 2.1506633
}, {
    "category": "2",
    "id": 18525,
    "title": "PHARMACIE HAIK",
    "address": "4 PL TAVARNELLE VAL DI PESA",
    "city": "GAGNY",
    "zipcode": "93220",
    "phone": "01 43 30 05 92",
    "lat": 48.877393,
    "lng": 2.552512
}, {
    "category": "3",
    "id": 19250,
    "title": "PHARMACIE PRINCIPALE",
    "address": "9 PLACE ROGER LEVANNEUR",
    "city": "MONTMORENCY",
    "zipcode": "95160",
    "phone": "01 39 64 22 94",
    "lat": 48.9885815,
    "lng": 2.3182879
}, {
    "category": "2",
    "id": 17824,
    "title": "PHARMACIE DU CENTRE VILLE",
    "address": "19 RUE DU COLONEL FABIEN",
    "city": "VALENTON",
    "zipcode": "94460",
    "phone": "01 43 89 03 27",
    "lat": 48.7462081,
    "lng": 2.4685152
}, {
    "category": "1",
    "id": 17485,
    "title": "PHARMACIE DES ECOLES",
    "address": "18 RUE CARNOT",
    "city": "SOISY-SOUS-MONTMORENCY",
    "zipcode": "95230",
    "phone": "01 39 89 02 70",
    "lat": 48.9876282,
    "lng": 2.2992338
}, {
    "category": "2",
    "id": 15282,
    "title": "CARREFOUR FORME ET BEAUTE",
    "address": "AVENUE ROBERT SCHUMANN VAL NOTRE DAME",
    "city": "SARTROUVILLE",
    "zipcode": "78500",
    "phone": "01 61 04 68 19",
    "lat": 48.945893,
    "lng": 2.196532
}, {
    "category": "1",
    "id": 16409,
    "title": "PHARMACIE CENTRE LIMEIL",
    "address": "2BIS AVENUE DE VERDUN",
    "city": "LIMEIL-BREVANNES",
    "zipcode": "94450",
    "phone": "01 45 69 12 57",
    "lat": 48.7519661,
    "lng": 2.4873117
}, {
    "category": "2",
    "id": 18987,
    "title": "PHARMACIE MORNAS",
    "address": "19 BOULEVARD FERNAND HOSTACHY",
    "city": "CROISSY-SUR-SEINE",
    "zipcode": "78290",
    "phone": "01 39 76 21 69",
    "lat": 48.8780087,
    "lng": 2.1446019
}, {
    "category": "3",
    "id": 15887,
    "title": "PHARMACIE 2000",
    "address": "67 RUE DU MARECHAL LECLERC",
    "city": "EAUBONNE",
    "zipcode": "95600",
    "phone": "01 39 59 45 14",
    "lat": 48.9850183,
    "lng": 2.2728275
}, {
    "category": "2",
    "id": 16939,
    "title": "PHARMACIE DE LA GARE.",
    "address": "5 PLACE DE LA GARE",
    "city": "SAINT-BRICE-SOUS-FORET",
    "zipcode": "95350",
    "phone": "01 39 90 79 02",
    "lat": 48.994822,
    "lng": 2.3686024
}, {
    "category": "1",
    "id": 17859,
    "title": "PHARMACIE DU CLOS DE PACY",
    "address": "9 TER RUE MAURICE BERTEAUX",
    "city": "SUCY-EN-BRIE",
    "zipcode": "94370",
    "phone": "01 45 90 28 32",
    "lat": 48.7717015,
    "lng": 2.5193337
}, {
    "category": "2",
    "id": 18477,
    "title": "PHARMACIE GRAND SIECLE",
    "address": "21 ESPLANADE DU GRAND SIECLE",
    "city": "VERSAILLES",
    "zipcode": "78000",
    "phone": "01 39 50 80 81",
    "lat": 48.8038464,
    "lng": 2.1564977
}, {
    "category": "1",
    "id": 17095,
    "title": "PHARMACIE DE LA POSTE",
    "address": "81 RUE JEAN JAURES",
    "city": "ARNOUVILLE-LES-GONESSE",
    "zipcode": "95400",
    "phone": "01 39 85 07 04",
    "lat": 48.9904688,
    "lng": 2.4181143
}, {
    "category": "2",
    "id": 16588,
    "title": "PHARMACIE DANIEL",
    "address": "CENTRE COMMERCIAL CORA AVENUE DE L EUROPE",
    "city": "MASSY",
    "zipcode": "91300",
    "phone": "01 69 30 01 52",
    "lat": 48.7245963,
    "lng": 2.2775976
}, {
    "category": "3",
    "id": 15551,
    "title": "LA PHARMACIE VERTE",
    "address": "28/30 AVENUE DE PARIS",
    "city": "SOISY-SOUS-MONTMORENCY",
    "zipcode": "95230",
    "phone": "01 34 17 15 84",
    "lat": 48.9917453,
    "lng": 2.2910998
}, {
    "category": "2",
    "id": 15763,
    "title": "PARAPHARMACIE LECLERC",
    "address": "1 AVENUE GEORGES POMPIDOU CTRE CIAL DE LA GRANDE VALLEE",
    "city": "GONESSE",
    "zipcode": "95500",
    "phone": "01 39 87 06 06",
    "lat": 48.9900042,
    "lng": 2.4302404
}, {
    "category": "1",
    "id": 17632,
    "title": "PHARMACIE DES TILLEULS",
    "address": "2 RUE DES TILLEULS",
    "city": "EAUBONNE",
    "zipcode": "95600",
    "phone": "01 39 59 01 18",
    "lat": 48.9922936,
    "lng": 2.2807444
}, {
    "category": "2",
    "id": 15898,
    "title": "PHARMACIE ABITBOL MADAR",
    "address": "01 RUE CHRISTINO GARCIA",
    "city": "EAUBONNE",
    "zipcode": "95600",
    "phone": "01 39 59 62 56",
    "lat": 48.9914385,
    "lng": 2.2765656
},